{"type":"FeatureCollection","features":[{"type":"Feature","geometry":{"type":"Point","coordinates":[9.8212,54.0804]},"properties":{"NUTS_ID":"DEF0","LEVL_CODE":2,"CNTR_CODE":"DE","NAME_LATN":"Schleswig-Holstein","NUTS_NAME":"Schleswig-Holstein","MOUNT_TYPE":0,"URBN_TYPE":0,"COAST_TYPE":0,"FID":"DEF0"},"id":"DEF0"},{"type":"Feature","geometry":{"type":"Point","coordinates":[11.0218,50.9044]},"properties":{"NUTS_ID":"DEG0","LEVL_CODE":2,"CNTR_CODE":"DE","NAME_LATN":"Thüringen","NUTS_NAME":"Thüringen","MOUNT_TYPE":0,"URBN_TYPE":0,"COAST_TYPE":0,"FID":"DEG0"},"id":"DEG0"},{"type":"Feature","geometry":{"type":"Point","coordinates":[12.3296,55.8618]},"properties":{"NUTS_ID":"DK01","LEVL_CODE":2,"CNTR_CODE":"DK","NAME_LATN":"Hovedstaden","NUTS_NAME":"Hovedstaden","MOUNT_TYPE":0,"URBN_TYPE":0,"COAST_TYPE":0,"FID":"DK01"},"id":"DK01"},{"type":"Feature","geometry":{"type":"Point","coordinates":[11.7509,55.4376]},"properties":{"NUTS_ID":"DK02","LEVL_CODE":2,"CNTR_CODE":"DK","NAME_LATN":"Sjælland","NUTS_NAME":"Sjælland","MOUNT_TYPE":0,"URBN_TYPE":0,"COAST_TYPE":0,"FID":"DK02"},"id":"DK02"},{"type":"Feature","geometry":{"type":"Point","coordinates":[9.0569,55.4038]},"properties":{"NUTS_ID":"DK03","LEVL_CODE":2,"CNTR_CODE":"DK","NAME_LATN":"Syddanmark","NUTS_NAME":"Syddanmark","MOUNT_TYPE":0,"URBN_TYPE":0,"COAST_TYPE":0,"FID":"DK03"},"id":"DK03"},{"type":"Feature","geometry":{"type":"Point","coordinates":[9.3996,56.2457]},"properties":{"NUTS_ID":"DK04","LEVL_CODE":2,"CNTR_CODE":"DK","NAME_LATN":"Midtjylland","NUTS_NAME":"Midtjylland","MOUNT_TYPE":0,"URBN_TYPE":0,"COAST_TYPE":0,"FID":"DK04"},"id":"DK04"},{"type":"Feature","geometry":{"type":"Point","coordinates":[9.953,57.2719]},"properties":{"NUTS_ID":"DK05","LEVL_CODE":2,"CNTR_CODE":"DK","NAME_LATN":"Nordjylland","NUTS_NAME":"Nordjylland","MOUNT_TYPE":0,"URBN_TYPE":0,"COAST_TYPE":0,"FID":"DK05"},"id":"DK05"},{"type":"Feature","geometry":{"type":"Point","coordinates":[25.8548,58.6709]},"properties":{"NUTS_ID":"EE00","LEVL_CODE":2,"CNTR_CODE":"EE","NAME_LATN":"Eesti","NUTS_NAME":"Eesti","MOUNT_TYPE":0,"URBN_TYPE":0,"COAST_TYPE":0,"FID":"EE00"},"id":"EE00"},{"type":"Feature","geometry":{"type":"Point","coordinates":[23.8114,38.0548]},"properties":{"NUTS_ID":"EL30","LEVL_CODE":2,"CNTR_CODE":"EL","NAME_LATN":"Attiki","NUTS_NAME":"Aττική","MOUNT_TYPE":0,"URBN_TYPE":0,"COAST_TYPE":0,"FID":"EL30"},"id":"EL30"},{"type":"Feature","geometry":{"type":"Point","coordinates":[26.0189,39.1974]},"properties":{"NUTS_ID":"EL41","LEVL_CODE":2,"CNTR_CODE":"EL","NAME_LATN":"Voreio Aigaio","NUTS_NAME":"Βόρειο Αιγαίο","MOUNT_TYPE":0,"URBN_TYPE":0,"COAST_TYPE":0,"FID":"EL41"},"id":"EL41"},{"type":"Feature","geometry":{"type":"Point","coordinates":[27.9147,36.1601]},"properties":{"NUTS_ID":"EL42","LEVL_CODE":2,"CNTR_CODE":"EL","NAME_LATN":"Notio Aigaio","NUTS_NAME":"Νότιο Αιγαίο","MOUNT_TYPE":0,"URBN_TYPE":0,"COAST_TYPE":0,"FID":"EL42"},"id":"EL42"},{"type":"Feature","geometry":{"type":"Point","coordinates":[24.8224,35.2248]},"properties":{"NUTS_ID":"EL43","LEVL_CODE":2,"CNTR_CODE":"EL","NAME_LATN":"Kriti","NUTS_NAME":"Κρήτη","MOUNT_TYPE":0,"URBN_TYPE":0,"COAST_TYPE":0,"FID":"EL43"},"id":"EL43"},{"type":"Feature","geometry":{"type":"Point","coordinates":[25.8503,41.0757]},"properties":{"NUTS_ID":"EL51","LEVL_CODE":2,"CNTR_CODE":"EL","NAME_LATN":"Anatoliki Makedonia, Thraki","NUTS_NAME":"Aνατολική Μακεδονία, Θράκη","MOUNT_TYPE":0,"URBN_TYPE":0,"COAST_TYPE":0,"FID":"EL51"},"id":"EL51"},{"type":"Feature","geometry":{"type":"Point","coordinates":[22.9126,40.7891]},"properties":{"NUTS_ID":"EL52","LEVL_CODE":2,"CNTR_CODE":"EL","NAME_LATN":"Kentriki Makedonia","NUTS_NAME":"Κεντρική Μακεδονία","MOUNT_TYPE":0,"URBN_TYPE":0,"COAST_TYPE":0,"FID":"EL52"},"id":"EL52"},{"type":"Feature","geometry":{"type":"Point","coordinates":[21.4875,40.3646]},"properties":{"NUTS_ID":"EL53","LEVL_CODE":2,"CNTR_CODE":"EL","NAME_LATN":"Dytiki Makedonia","NUTS_NAME":"Δυτική Μακεδονία","MOUNT_TYPE":0,"URBN_TYPE":0,"COAST_TYPE":0,"FID":"EL53"},"id":"EL53"},{"type":"Feature","geometry":{"type":"Point","coordinates":[20.7851,39.6039]},"properties":{"NUTS_ID":"EL54","LEVL_CODE":2,"CNTR_CODE":"EL","NAME_LATN":"Ipeiros","NUTS_NAME":"Ήπειρος","MOUNT_TYPE":0,"URBN_TYPE":0,"COAST_TYPE":0,"FID":"EL54"},"id":"EL54"},{"type":"Feature","geometry":{"type":"Point","coordinates":[22.1493,39.5533]},"properties":{"NUTS_ID":"EL61","LEVL_CODE":2,"CNTR_CODE":"EL","NAME_LATN":"Thessalia","NUTS_NAME":"Θεσσαλία","MOUNT_TYPE":0,"URBN_TYPE":0,"COAST_TYPE":0,"FID":"EL61"},"id":"EL61"},{"type":"Feature","geometry":{"type":"Point","coordinates":[20.5459,38.2459]},"properties":{"NUTS_ID":"EL62","LEVL_CODE":2,"CNTR_CODE":"EL","NAME_LATN":"Ionia Nisia","NUTS_NAME":"Ιόνια Νησιά","MOUNT_TYPE":0,"URBN_TYPE":0,"COAST_TYPE":0,"FID":"EL62"},"id":"EL62"},{"type":"Feature","geometry":{"type":"Point","coordinates":[21.5005,37.8708]},"properties":{"NUTS_ID":"EL63","LEVL_CODE":2,"CNTR_CODE":"EL","NAME_LATN":"Dytiki Elláda","NUTS_NAME":"Δυτική Ελλάδα","MOUNT_TYPE":0,"URBN_TYPE":0,"COAST_TYPE":0,"FID":"EL63"},"id":"EL63"},{"type":"Feature","geometry":{"type":"Point","coordinates":[22.7247,38.558]},"properties":{"NUTS_ID":"EL64","LEVL_CODE":2,"CNTR_CODE":"EL","NAME_LATN":"Sterea Elláda","NUTS_NAME":"Στερεά Ελλάδα","MOUNT_TYPE":0,"URBN_TYPE":0,"COAST_TYPE":0,"FID":"EL64"},"id":"EL64"},{"type":"Feature","geometry":{"type":"Point","coordinates":[22.463,37.397]},"properties":{"NUTS_ID":"EL65","LEVL_CODE":2,"CNTR_CODE":"EL","NAME_LATN":"Peloponnisos","NUTS_NAME":"Πελοπόννησος","MOUNT_TYPE":0,"URBN_TYPE":0,"COAST_TYPE":0,"FID":"EL65"},"id":"EL65"},{"type":"Feature","geometry":{"type":"Point","coordinates":[-7.8957,42.7431]},"properties":{"NUTS_ID":"ES11","LEVL_CODE":2,"CNTR_CODE":"ES","NAME_LATN":"Galicia","NUTS_NAME":"Galicia","MOUNT_TYPE":0,"URBN_TYPE":0,"COAST_TYPE":0,"FID":"ES11"},"id":"ES11"},{"type":"Feature","geometry":{"type":"Point","coordinates":[-5.9972,43.3017]},"properties":{"NUTS_ID":"ES12","LEVL_CODE":2,"CNTR_CODE":"ES","NAME_LATN":"Principado de Asturias","NUTS_NAME":"Principado de Asturias","MOUNT_TYPE":0,"URBN_TYPE":0,"COAST_TYPE":0,"FID":"ES12"},"id":"ES12"},{"type":"Feature","geometry":{"type":"Point","coordinates":[-4.0606,43.1875]},"properties":{"NUTS_ID":"ES13","LEVL_CODE":2,"CNTR_CODE":"ES","NAME_LATN":"Cantabria","NUTS_NAME":"Cantabria","MOUNT_TYPE":0,"URBN_TYPE":0,"COAST_TYPE":0,"FID":"ES13"},"id":"ES13"},{"type":"Feature","geometry":{"type":"Point","coordinates":[-2.5863,43.0651]},"properties":{"NUTS_ID":"ES21","LEVL_CODE":2,"CNTR_CODE":"ES","NAME_LATN":"País Vasco","NUTS_NAME":"País Vasco","MOUNT_TYPE":0,"URBN_TYPE":0,"COAST_TYPE":0,"FID":"ES21"},"id":"ES21"},{"type":"Feature","geometry":{"type":"Point","coordinates":[-1.6508,42.7117]},"properties":{"NUTS_ID":"ES22","LEVL_CODE":2,"CNTR_CODE":"ES","NAME_LATN":"Comunidad Foral de Navarra","NUTS_NAME":"Comunidad Foral de Navarra","MOUNT_TYPE":0,"URBN_TYPE":0,"COAST_TYPE":0,"FID":"ES22"},"id":"ES22"},{"type":"Feature","geometry":{"type":"Point","coordinates":[-2.4332,42.3132]},"properties":{"NUTS_ID":"ES23","LEVL_CODE":2,"CNTR_CODE":"ES","NAME_LATN":"La Rioja","NUTS_NAME":"La Rioja","MOUNT_TYPE":0,"URBN_TYPE":0,"COAST_TYPE":0,"FID":"ES23"},"id":"ES23"},{"type":"Feature","geometry":{"type":"Point","coordinates":[-0.6751,41.507]},"properties":{"NUTS_ID":"ES24","LEVL_CODE":2,"CNTR_CODE":"ES","NAME_LATN":"Aragón","NUTS_NAME":"Aragón","MOUNT_TYPE":0,"URBN_TYPE":0,"COAST_TYPE":0,"FID":"ES24"},"id":"ES24"},{"type":"Feature","geometry":{"type":"Point","coordinates":[-3.7119,40.5008]},"properties":{"NUTS_ID":"ES30","LEVL_CODE":2,"CNTR_CODE":"ES","NAME_LATN":"Comunidad de Madrid","NUTS_NAME":"Comunidad de Madrid","MOUNT_TYPE":0,"URBN_TYPE":0,"COAST_TYPE":0,"FID":"ES30"},"id":"ES30"},{"type":"Feature","geometry":{"type":"Point","coordinates":[-4.8172,41.7447]},"properties":{"NUTS_ID":"ES41","LEVL_CODE":2,"CNTR_CODE":"ES","NAME_LATN":"Castilla y León","NUTS_NAME":"Castilla y León","MOUNT_TYPE":0,"URBN_TYPE":0,"COAST_TYPE":0,"FID":"ES41"},"id":"ES41"},{"type":"Feature","geometry":{"type":"Point","coordinates":[-3.1358,39.2748]},"properties":{"NUTS_ID":"ES42","LEVL_CODE":2,"CNTR_CODE":"ES","NAME_LATN":"Castilla-La Mancha","NUTS_NAME":"Castilla-La Mancha","MOUNT_TYPE":0,"URBN_TYPE":0,"COAST_TYPE":0,"FID":"ES42"},"id":"ES42"},{"type":"Feature","geometry":{"type":"Point","coordinates":[-6.1601,39.1892]},"properties":{"NUTS_ID":"ES43","LEVL_CODE":2,"CNTR_CODE":"ES","NAME_LATN":"Extremadura","NUTS_NAME":"Extremadura","MOUNT_TYPE":0,"URBN_TYPE":0,"COAST_TYPE":0,"FID":"ES43"},"id":"ES43"},{"type":"Feature","geometry":{"type":"Point","coordinates":[1.5078,41.8005]},"properties":{"NUTS_ID":"ES51","LEVL_CODE":2,"CNTR_CODE":"ES","NAME_LATN":"Cataluña","NUTS_NAME":"Cataluña","MOUNT_TYPE":0,"URBN_TYPE":0,"COAST_TYPE":0,"FID":"ES51"},"id":"ES51"},{"type":"Feature","geometry":{"type":"Point","coordinates":[-0.54,39.3945]},"properties":{"NUTS_ID":"ES52","LEVL_CODE":2,"CNTR_CODE":"ES","NAME_LATN":"Comunitat Valenciana","NUTS_NAME":"Comunitat Valenciana","MOUNT_TYPE":0,"URBN_TYPE":0,"COAST_TYPE":0,"FID":"ES52"},"id":"ES52"},{"type":"Feature","geometry":{"type":"Point","coordinates":[2.9634,39.6075]},"properties":{"NUTS_ID":"ES53","LEVL_CODE":2,"CNTR_CODE":"ES","NAME_LATN":"Illes Balears","NUTS_NAME":"Illes Balears","MOUNT_TYPE":0,"URBN_TYPE":0,"COAST_TYPE":0,"FID":"ES53"},"id":"ES53"},{"type":"Feature","geometry":{"type":"Point","coordinates":[-4.5804,37.4607]},"properties":{"NUTS_ID":"ES61","LEVL_CODE":2,"CNTR_CODE":"ES","NAME_LATN":"Andalucía","NUTS_NAME":"Andalucía","MOUNT_TYPE":0,"URBN_TYPE":0,"COAST_TYPE":0,"FID":"ES61"},"id":"ES61"},{"type":"Feature","geometry":{"type":"Point","coordinates":[-1.4907,37.9999]},"properties":{"NUTS_ID":"ES62","LEVL_CODE":2,"CNTR_CODE":"ES","NAME_LATN":"Región de Murcia","NUTS_NAME":"Región de Murcia","MOUNT_TYPE":0,"URBN_TYPE":0,"COAST_TYPE":0,"FID":"ES62"},"id":"ES62"},{"type":"Feature","geometry":{"type":"Point","coordinates":[-5.3543,35.8958]},"properties":{"NUTS_ID":"ES63","LEVL_CODE":2,"CNTR_CODE":"ES","NAME_LATN":"Ciudad de Ceuta","NUTS_NAME":"Ciudad de Ceuta","MOUNT_TYPE":0,"URBN_TYPE":0,"COAST_TYPE":0,"FID":"ES63"},"id":"ES63"},{"type":"Feature","geometry":{"type":"Point","coordinates":[-2.9509,35.297]},"properties":{"NUTS_ID":"ES64","LEVL_CODE":2,"CNTR_CODE":"ES","NAME_LATN":"Ciudad de Melilla","NUTS_NAME":"Ciudad de Melilla","MOUNT_TYPE":0,"URBN_TYPE":0,"COAST_TYPE":0,"FID":"ES64"},"id":"ES64"},{"type":"Feature","geometry":{"type":"Point","coordinates":[-16.5646,28.2457]},"properties":{"NUTS_ID":"ES70","LEVL_CODE":2,"CNTR_CODE":"ES","NAME_LATN":"Canarias","NUTS_NAME":"Canarias","MOUNT_TYPE":0,"URBN_TYPE":0,"COAST_TYPE":0,"FID":"ES70"},"id":"ES70"},{"type":"Feature","geometry":{"type":"Point","coordinates":[23.7142,62.3222]},"properties":{"NUTS_ID":"FI19","LEVL_CODE":2,"CNTR_CODE":"FI","NAME_LATN":"Länsi-Suomi","NUTS_NAME":"Länsi-Suomi","MOUNT_TYPE":0,"URBN_TYPE":0,"COAST_TYPE":0,"FID":"FI19"},"id":"FI19"},{"type":"Feature","geometry":{"type":"Point","coordinates":[24.7512,60.3817]},"properties":{"NUTS_ID":"FI1B","LEVL_CODE":2,"CNTR_CODE":"FI","NAME_LATN":"Helsinki-Uusimaa","NUTS_NAME":"Helsinki-Uusimaa","MOUNT_TYPE":0,"URBN_TYPE":0,"COAST_TYPE":0,"FID":"FI1B"},"id":"FI1B"},{"type":"Feature","geometry":{"type":"Point","coordinates":[25.7012,61.2225]},"properties":{"NUTS_ID":"FI1C","LEVL_CODE":2,"CNTR_CODE":"FI","NAME_LATN":"Etelä-Suomi","NUTS_NAME":"Etelä-Suomi","MOUNT_TYPE":0,"URBN_TYPE":0,"COAST_TYPE":0,"FID":"FI1C"},"id":"FI1C"},{"type":"Feature","geometry":{"type":"Point","coordinates":[27.0844,65.6366]},"properties":{"NUTS_ID":"FI1D","LEVL_CODE":2,"CNTR_CODE":"FI","NAME_LATN":"Pohjois- ja Itä-Suomi","NUTS_NAME":"Pohjois- ja Itä-Suomi","MOUNT_TYPE":0,"URBN_TYPE":0,"COAST_TYPE":0,"FID":"FI1D"},"id":"FI1D"},{"type":"Feature","geometry":{"type":"Point","coordinates":[20.0931,60.2653]},"properties":{"NUTS_ID":"FI20","LEVL_CODE":2,"CNTR_CODE":"FI","NAME_LATN":"Åland","NUTS_NAME":"Åland","MOUNT_TYPE":0,"URBN_TYPE":0,"COAST_TYPE":0,"FID":"FI20"},"id":"FI20"},{"type":"Feature","geometry":{"type":"Point","coordinates":[2.5234,48.7196]},"properties":{"NUTS_ID":"FR10","LEVL_CODE":2,"CNTR_CODE":"FR","NAME_LATN":"Ile-de-France","NUTS_NAME":"Ile-de-France","MOUNT_TYPE":0,"URBN_TYPE":0,"COAST_TYPE":0,"FID":"FR10"},"id":"FR10"},{"type":"Feature","geometry":{"type":"Point","coordinates":[1.6776,47.4811]},"properties":{"NUTS_ID":"FRB0","LEVL_CODE":2,"CNTR_CODE":"FR","NAME_LATN":"Centre — Val de Loire","NUTS_NAME":"Centre — Val de Loire","MOUNT_TYPE":0,"URBN_TYPE":0,"COAST_TYPE":0,"FID":"FRB0"},"id":"FRB0"},{"type":"Feature","geometry":{"type":"Point","coordinates":[4.1531,47.2537]},"properties":{"NUTS_ID":"FRC1","LEVL_CODE":2,"CNTR_CODE":"FR","NAME_LATN":"Bourgogne","NUTS_NAME":"Bourgogne","MOUNT_TYPE":0,"URBN_TYPE":0,"COAST_TYPE":0,"FID":"FRC1"},"id":"FRC1"},{"type":"Feature","geometry":{"type":"Point","coordinates":[6.0795,47.1972]},"properties":{"NUTS_ID":"FRC2","LEVL_CODE":2,"CNTR_CODE":"FR","NAME_LATN":"Franche-Comté","NUTS_NAME":"Franche-Comté","MOUNT_TYPE":0,"URBN_TYPE":0,"COAST_TYPE":0,"FID":"FRC2"},"id":"FRC2"},{"type":"Feature","geometry":{"type":"Point","coordinates":[-0.4742,48.9092]},"properties":{"NUTS_ID":"FRD1","LEVL_CODE":2,"CNTR_CODE":"FR","NAME_LATN":"Basse-Normandie","NUTS_NAME":"Basse-Normandie","MOUNT_TYPE":0,"URBN_TYPE":0,"COAST_TYPE":0,"FID":"FRD1"},"id":"FRD1"},{"type":"Feature","geometry":{"type":"Point","coordinates":[1.0286,49.3909]},"properties":{"NUTS_ID":"FRD2","LEVL_CODE":2,"CNTR_CODE":"FR","NAME_LATN":"Haute-Normandie","NUTS_NAME":"Haute-Normandie","MOUNT_TYPE":0,"URBN_TYPE":0,"COAST_TYPE":0,"FID":"FRD2"},"id":"FRD2"},{"type":"Feature","geometry":{"type":"Point","coordinates":[2.7098,50.4789]},"properties":{"NUTS_ID":"FRE1","LEVL_CODE":2,"CNTR_CODE":"FR","NAME_LATN":"Nord-Pas de Calais","NUTS_NAME":"Nord-Pas de Calais","MOUNT_TYPE":0,"URBN_TYPE":0,"COAST_TYPE":0,"FID":"FRE1"},"id":"FRE1"},{"type":"Feature","geometry":{"type":"Point","coordinates":[2.7999,49.6406]},"properties":{"NUTS_ID":"FRE2","LEVL_CODE":2,"CNTR_CODE":"FR","NAME_LATN":"Picardie","NUTS_NAME":"Picardie","MOUNT_TYPE":0,"URBN_TYPE":0,"COAST_TYPE":0,"FID":"FRE2"},"id":"FRE2"},{"type":"Feature","geometry":{"type":"Point","coordinates":[7.4515,48.3183]},"properties":{"NUTS_ID":"FRF1","LEVL_CODE":2,"CNTR_CODE":"FR","NAME_LATN":"Alsace","NUTS_NAME":"Alsace","MOUNT_TYPE":0,"URBN_TYPE":0,"COAST_TYPE":0,"FID":"FRF1"},"id":"FRF1"},{"type":"Feature","geometry":{"type":"Point","coordinates":[4.5387,48.7435]},"properties":{"NUTS_ID":"FRF2","LEVL_CODE":2,"CNTR_CODE":"FR","NAME_LATN":"Champagne-Ardenne","NUTS_NAME":"Champagne-Ardenne","MOUNT_TYPE":0,"URBN_TYPE":0,"COAST_TYPE":0,"FID":"FRF2"},"id":"FRF2"},{"type":"Feature","geometry":{"type":"Point","coordinates":[6.1359,48.755]},"properties":{"NUTS_ID":"FRF3","LEVL_CODE":2,"CNTR_CODE":"FR","NAME_LATN":"Lorraine","NUTS_NAME":"Lorraine","MOUNT_TYPE":0,"URBN_TYPE":0,"COAST_TYPE":0,"FID":"FRF3"},"id":"FRF3"},{"type":"Feature","geometry":{"type":"Point","coordinates":[-0.7959,47.4936]},"properties":{"NUTS_ID":"FRG0","LEVL_CODE":2,"CNTR_CODE":"FR","NAME_LATN":"Pays de la Loire","NUTS_NAME":"Pays de la Loire","MOUNT_TYPE":0,"URBN_TYPE":0,"COAST_TYPE":0,"FID":"FRG0"},"id":"FRG0"},{"type":"Feature","geometry":{"type":"Point","coordinates":[-2.7883,48.1657]},"properties":{"NUTS_ID":"FRH0","LEVL_CODE":2,"CNTR_CODE":"FR","NAME_LATN":"Bretagne","NUTS_NAME":"Bretagne","MOUNT_TYPE":0,"URBN_TYPE":0,"COAST_TYPE":0,"FID":"FRH0"},"id":"FRH0"},{"type":"Feature","geometry":{"type":"Point","coordinates":[-0.2186,44.3694]},"properties":{"NUTS_ID":"FRI1","LEVL_CODE":2,"CNTR_CODE":"FR","NAME_LATN":"Aquitaine","NUTS_NAME":"Aquitaine","MOUNT_TYPE":0,"URBN_TYPE":0,"COAST_TYPE":0,"FID":"FRI1"},"id":"FRI1"},{"type":"Feature","geometry":{"type":"Point","coordinates":[1.7204,45.7692]},"properties":{"NUTS_ID":"FRI2","LEVL_CODE":2,"CNTR_CODE":"FR","NAME_LATN":"Limousin","NUTS_NAME":"Limousin","MOUNT_TYPE":0,"URBN_TYPE":0,"COAST_TYPE":0,"FID":"FRI2"},"id":"FRI2"},{"type":"Feature","geometry":{"type":"Point","coordinates":[-0.0669,46.1644]},"properties":{"NUTS_ID":"FRI3","LEVL_CODE":2,"CNTR_CODE":"FR","NAME_LATN":"Poitou-Charentes","NUTS_NAME":"Poitou-Charentes","MOUNT_TYPE":0,"URBN_TYPE":0,"COAST_TYPE":0,"FID":"FRI3"},"id":"FRI3"},{"type":"Feature","geometry":{"type":"Point","coordinates":[3.25,43.6073]},"properties":{"NUTS_ID":"FRJ1","LEVL_CODE":2,"CNTR_CODE":"FR","NAME_LATN":"Languedoc-Roussillon","NUTS_NAME":"Languedoc-Roussillon","MOUNT_TYPE":0,"URBN_TYPE":0,"COAST_TYPE":0,"FID":"FRJ1"},"id":"FRJ1"},{"type":"Feature","geometry":{"type":"Point","coordinates":[1.4911,43.771]},"properties":{"NUTS_ID":"FRJ2","LEVL_CODE":2,"CNTR_CODE":"FR","NAME_LATN":"Midi-Pyrénées","NUTS_NAME":"Midi-Pyrénées","MOUNT_TYPE":0,"URBN_TYPE":0,"COAST_TYPE":0,"FID":"FRJ2"},"id":"FRJ2"},{"type":"Feature","geometry":{"type":"Point","coordinates":[3.1584,45.6611]},"properties":{"NUTS_ID":"FRK1","LEVL_CODE":2,"CNTR_CODE":"FR","NAME_LATN":"Auvergne","NUTS_NAME":"Auvergne","MOUNT_TYPE":0,"URBN_TYPE":0,"COAST_TYPE":0,"FID":"FRK1"},"id":"FRK1"},{"type":"Feature","geometry":{"type":"Point","coordinates":[5.3448,45.442]},"properties":{"NUTS_ID":"FRK2","LEVL_CODE":2,"CNTR_CODE":"FR","NAME_LATN":"Rhône-Alpes","NUTS_NAME":"Rhône-Alpes","MOUNT_TYPE":0,"URBN_TYPE":0,"COAST_TYPE":0,"FID":"FRK2"},"id":"FRK2"},{"type":"Feature","geometry":{"type":"Point","coordinates":[6.0641,43.9629]},"properties":{"NUTS_ID":"FRL0","LEVL_CODE":2,"CNTR_CODE":"FR","NAME_LATN":"Provence-Alpes-Côte d’Azur","NUTS_NAME":"Provence-Alpes-Côte d’Azur","MOUNT_TYPE":0,"URBN_TYPE":0,"COAST_TYPE":0,"FID":"FRL0"},"id":"FRL0"},{"type":"Feature","geometry":{"type":"Point","coordinates":[9.0976,42.1267]},"properties":{"NUTS_ID":"FRM0","LEVL_CODE":2,"CNTR_CODE":"FR","NAME_LATN":"Corse","NUTS_NAME":"Corse","MOUNT_TYPE":0,"URBN_TYPE":0,"COAST_TYPE":0,"FID":"FRM0"},"id":"FRM0"},{"type":"Feature","geometry":{"type":"Point","coordinates":[-61.6877,16.1776]},"properties":{"NUTS_ID":"FRY1","LEVL_CODE":2,"CNTR_CODE":"FR","NAME_LATN":"Guadeloupe","NUTS_NAME":"Guadeloupe","MOUNT_TYPE":0,"URBN_TYPE":0,"COAST_TYPE":0,"FID":"FRY1"},"id":"FRY1"},{"type":"Feature","geometry":{"type":"Point","coordinates":[-60.9149,14.5657]},"properties":{"NUTS_ID":"FRY2","LEVL_CODE":2,"CNTR_CODE":"FR","NAME_LATN":"Martinique","NUTS_NAME":"Martinique","MOUNT_TYPE":0,"URBN_TYPE":0,"COAST_TYPE":0,"FID":"FRY2"},"id":"FRY2"},{"type":"Feature","geometry":{"type":"Point","coordinates":[-53.2263,3.9221]},"properties":{"NUTS_ID":"FRY3","LEVL_CODE":2,"CNTR_CODE":"FR","NAME_LATN":"Guyane","NUTS_NAME":"Guyane","MOUNT_TYPE":0,"URBN_TYPE":0,"COAST_TYPE":0,"FID":"FRY3"},"id":"FRY3"},{"type":"Feature","geometry":{"type":"Point","coordinates":[55.5328,-21.1271]},"properties":{"NUTS_ID":"FRY4","LEVL_CODE":2,"CNTR_CODE":"FR","NAME_LATN":"La Réunion","NUTS_NAME":"La Réunion","MOUNT_TYPE":0,"URBN_TYPE":0,"COAST_TYPE":0,"FID":"FRY4"},"id":"FRY4"},{"type":"Feature","geometry":{"type":"Point","coordinates":[45.1546,-12.8294]},"properties":{"NUTS_ID":"FRY5","LEVL_CODE":2,"CNTR_CODE":"FR","NAME_LATN":"Mayotte","NUTS_NAME":"Mayotte","MOUNT_TYPE":0,"URBN_TYPE":0,"COAST_TYPE":0,"FID":"FRY5"},"id":"FRY5"},{"type":"Feature","geometry":{"type":"Point","coordinates":[15.5424,44.4289]},"properties":{"NUTS_ID":"HR03","LEVL_CODE":2,"CNTR_CODE":"HR","NAME_LATN":"Jadranska Hrvatska","NUTS_NAME":"Jadranska Hrvatska","MOUNT_TYPE":0,"URBN_TYPE":0,"COAST_TYPE":0,"FID":"HR03"},"id":"HR03"},{"type":"Feature","geometry":{"type":"Point","coordinates":[16.0048,45.8301]},"properties":{"NUTS_ID":"HR05","LEVL_CODE":2,"CNTR_CODE":"HR","NAME_LATN":"Grad Zagreb","NUTS_NAME":"Grad Zagreb","MOUNT_TYPE":0,"URBN_TYPE":0,"COAST_TYPE":0,"FID":"HR05"},"id":"HR05"},{"type":"Feature","geometry":{"type":"Point","coordinates":[19.1023,47.4819]},"properties":{"NUTS_ID":"HU11","LEVL_CODE":2,"CNTR_CODE":"HU","NAME_LATN":"Budapest","NUTS_NAME":"Budapest","MOUNT_TYPE":0,"URBN_TYPE":0,"COAST_TYPE":0,"FID":"HU11"},"id":"HU11"},{"type":"Feature","geometry":{"type":"Point","coordinates":[19.04,47.1995]},"properties":{"NUTS_ID":"HU12","LEVL_CODE":2,"CNTR_CODE":"HU","NAME_LATN":"Pest","NUTS_NAME":"Pest","MOUNT_TYPE":0,"URBN_TYPE":0,"COAST_TYPE":0,"FID":"HU12"},"id":"HU12"},{"type":"Feature","geometry":{"type":"Point","coordinates":[18.1148,47.2298]},"properties":{"NUTS_ID":"HU21","LEVL_CODE":2,"CNTR_CODE":"HU","NAME_LATN":"Közép-Dunántúl","NUTS_NAME":"Közép-Dunántúl","MOUNT_TYPE":0,"URBN_TYPE":0,"COAST_TYPE":0,"FID":"HU21"},"id":"HU21"},{"type":"Feature","geometry":{"type":"Point","coordinates":[16.9918,47.1895]},"properties":{"NUTS_ID":"HU22","LEVL_CODE":2,"CNTR_CODE":"HU","NAME_LATN":"Nyugat-Dunántúl","NUTS_NAME":"Nyugat-Dunántúl","MOUNT_TYPE":0,"URBN_TYPE":0,"COAST_TYPE":0,"FID":"HU22"},"id":"HU22"},{"type":"Feature","geometry":{"type":"Point","coordinates":[18.0211,46.3423]},"properties":{"NUTS_ID":"HU23","LEVL_CODE":2,"CNTR_CODE":"HU","NAME_LATN":"Dél-Dunántúl","NUTS_NAME":"Dél-Dunántúl","MOUNT_TYPE":0,"URBN_TYPE":0,"COAST_TYPE":0,"FID":"HU23"},"id":"HU23"},{"type":"Feature","geometry":{"type":"Point","coordinates":[20.5247,47.9955]},"properties":{"NUTS_ID":"HU31","LEVL_CODE":2,"CNTR_CODE":"HU","NAME_LATN":"Észak-Magyarország","NUTS_NAME":"Észak-Magyarország","MOUNT_TYPE":0,"URBN_TYPE":0,"COAST_TYPE":0,"FID":"HU31"},"id":"HU31"},{"type":"Feature","geometry":{"type":"Point","coordinates":[21.3424,47.5817]},"properties":{"NUTS_ID":"HU32","LEVL_CODE":2,"CNTR_CODE":"HU","NAME_LATN":"Észak-Alföld","NUTS_NAME":"Észak-Alföld","MOUNT_TYPE":0,"URBN_TYPE":0,"COAST_TYPE":0,"FID":"HU32"},"id":"HU32"},{"type":"Feature","geometry":{"type":"Point","coordinates":[19.5165,46.585]},"properties":{"NUTS_ID":"HU33","LEVL_CODE":2,"CNTR_CODE":"HU","NAME_LATN":"Dél-Alföld","NUTS_NAME":"Dél-Alföld","MOUNT_TYPE":0,"URBN_TYPE":0,"COAST_TYPE":0,"FID":"HU33"},"id":"HU33"},{"type":"Feature","geometry":{"type":"Point","coordinates":[-8.358,53.7512]},"properties":{"NUTS_ID":"IE04","LEVL_CODE":2,"CNTR_CODE":"IE","NAME_LATN":"Northern and Western","NUTS_NAME":"Northern and Western","MOUNT_TYPE":0,"URBN_TYPE":0,"COAST_TYPE":0,"FID":"IE04"},"id":"IE04"},{"type":"Feature","geometry":{"type":"Point","coordinates":[-8.3667,52.3625]},"properties":{"NUTS_ID":"IE05","LEVL_CODE":2,"CNTR_CODE":"IE","NAME_LATN":"Southern","NUTS_NAME":"Southern","MOUNT_TYPE":0,"URBN_TYPE":0,"COAST_TYPE":0,"FID":"IE05"},"id":"IE05"},{"type":"Feature","geometry":{"type":"Point","coordinates":[-7.0156,53.3622]},"properties":{"NUTS_ID":"IE06","LEVL_CODE":2,"CNTR_CODE":"IE","NAME_LATN":"Eastern and Midland","NUTS_NAME":"Eastern and Midland","MOUNT_TYPE":0,"URBN_TYPE":0,"COAST_TYPE":0,"FID":"IE06"},"id":"IE06"},{"type":"Feature","geometry":{"type":"Point","coordinates":[-18.8569,64.756]},"properties":{"NUTS_ID":"IS00","LEVL_CODE":2,"CNTR_CODE":"IS","NAME_LATN":"Ísland","NUTS_NAME":"Ísland","MOUNT_TYPE":0,"URBN_TYPE":0,"COAST_TYPE":0,"FID":"IS00"},"id":"IS00"},{"type":"Feature","geometry":{"type":"Point","coordinates":[7.9189,45.0634]},"properties":{"NUTS_ID":"ITC1","LEVL_CODE":2,"CNTR_CODE":"IT","NAME_LATN":"Piemonte","NUTS_NAME":"Piemonte","MOUNT_TYPE":0,"URBN_TYPE":0,"COAST_TYPE":0,"FID":"ITC1"},"id":"ITC1"},{"type":"Feature","geometry":{"type":"Point","coordinates":[7.3925,45.7281]},"properties":{"NUTS_ID":"ITC2","LEVL_CODE":2,"CNTR_CODE":"IT","NAME_LATN":"Valle d’Aosta/Vallée d’Aoste","NUTS_NAME":"Valle d’Aosta/Vallée d’Aoste","MOUNT_TYPE":0,"URBN_TYPE":0,"COAST_TYPE":0,"FID":"ITC2"},"id":"ITC2"},{"type":"Feature","geometry":{"type":"Point","coordinates":[8.1521,44.1573]},"properties":{"NUTS_ID":"ITC3","LEVL_CODE":2,"CNTR_CODE":"IT","NAME_LATN":"Liguria","NUTS_NAME":"Liguria","MOUNT_TYPE":0,"URBN_TYPE":0,"COAST_TYPE":0,"FID":"ITC3"},"id":"ITC3"},{"type":"Feature","geometry":{"type":"Point","coordinates":[9.773,45.6127]},"properties":{"NUTS_ID":"ITC4","LEVL_CODE":2,"CNTR_CODE":"IT","NAME_LATN":"Lombardia","NUTS_NAME":"Lombardia","MOUNT_TYPE":0,"URBN_TYPE":0,"COAST_TYPE":0,"FID":"ITC4"},"id":"ITC4"},{"type":"Feature","geometry":{"type":"Point","coordinates":[13.8714,42.2341]},"properties":{"NUTS_ID":"ITF1","LEVL_CODE":2,"CNTR_CODE":"IT","NAME_LATN":"Abruzzo","NUTS_NAME":"Abruzzo","MOUNT_TYPE":0,"URBN_TYPE":0,"COAST_TYPE":0,"FID":"ITF1"},"id":"ITF1"},{"type":"Feature","geometry":{"type":"Point","coordinates":[14.5396,41.5949]},"properties":{"NUTS_ID":"ITF2","LEVL_CODE":2,"CNTR_CODE":"IT","NAME_LATN":"Molise","NUTS_NAME":"Molise","MOUNT_TYPE":0,"URBN_TYPE":0,"COAST_TYPE":0,"FID":"ITF2"},"id":"ITF2"},{"type":"Feature","geometry":{"type":"Point","coordinates":[14.7373,41.0387]},"properties":{"NUTS_ID":"ITF3","LEVL_CODE":2,"CNTR_CODE":"IT","NAME_LATN":"Campania","NUTS_NAME":"Campania","MOUNT_TYPE":0,"URBN_TYPE":0,"COAST_TYPE":0,"FID":"ITF3"},"id":"ITF3"},{"type":"Feature","geometry":{"type":"Point","coordinates":[16.5847,41.0043]},"properties":{"NUTS_ID":"ITF4","LEVL_CODE":2,"CNTR_CODE":"IT","NAME_LATN":"Puglia","NUTS_NAME":"Puglia","MOUNT_TYPE":0,"URBN_TYPE":0,"COAST_TYPE":0,"FID":"ITF4"},"id":"ITF4"},{"type":"Feature","geometry":{"type":"Point","coordinates":[16.0794,40.5157]},"properties":{"NUTS_ID":"ITF5","LEVL_CODE":2,"CNTR_CODE":"IT","NAME_LATN":"Basilicata","NUTS_NAME":"Basilicata","MOUNT_TYPE":0,"URBN_TYPE":0,"COAST_TYPE":0,"FID":"ITF5"},"id":"ITF5"},{"type":"Feature","geometry":{"type":"Point","coordinates":[16.3822,39.1604]},"properties":{"NUTS_ID":"ITF6","LEVL_CODE":2,"CNTR_CODE":"IT","NAME_LATN":"Calabria","NUTS_NAME":"Calabria","MOUNT_TYPE":0,"URBN_TYPE":0,"COAST_TYPE":0,"FID":"ITF6"},"id":"ITF6"},{"type":"Feature","geometry":{"type":"Point","coordinates":[14.1658,37.5704]},"properties":{"NUTS_ID":"ITG1","LEVL_CODE":2,"CNTR_CODE":"IT","NAME_LATN":"Sicilia","NUTS_NAME":"Sicilia","MOUNT_TYPE":0,"URBN_TYPE":0,"COAST_TYPE":0,"FID":"ITG1"},"id":"ITG1"},{"type":"Feature","geometry":{"type":"Point","coordinates":[9.0348,40.0775]},"properties":{"NUTS_ID":"ITG2","LEVL_CODE":2,"CNTR_CODE":"IT","NAME_LATN":"Sardegna","NUTS_NAME":"Sardegna","MOUNT_TYPE":0,"URBN_TYPE":0,"COAST_TYPE":0,"FID":"ITG2"},"id":"ITG2"},{"type":"Feature","geometry":{"type":"Point","coordinates":[11.4241,46.7053]},"properties":{"NUTS_ID":"ITH1","LEVL_CODE":2,"CNTR_CODE":"IT","NAME_LATN":"Provincia Autonoma di Bolzano/Bozen","NUTS_NAME":"Provincia Autonoma di Bolzano/Bozen","MOUNT_TYPE":0,"URBN_TYPE":0,"COAST_TYPE":0,"FID":"ITH1"},"id":"ITH1"},{"type":"Feature","geometry":{"type":"Point","coordinates":[10.859,46.1313]},"properties":{"NUTS_ID":"ITH2","LEVL_CODE":2,"CNTR_CODE":"IT","NAME_LATN":"Provincia Autonoma di Trento","NUTS_NAME":"Provincia Autonoma di Trento","MOUNT_TYPE":0,"URBN_TYPE":0,"COAST_TYPE":0,"FID":"ITH2"},"id":"ITH2"},{"type":"Feature","geometry":{"type":"Point","coordinates":[11.8546,45.661]},"properties":{"NUTS_ID":"ITH3","LEVL_CODE":2,"CNTR_CODE":"IT","NAME_LATN":"Veneto","NUTS_NAME":"Veneto","MOUNT_TYPE":0,"URBN_TYPE":0,"COAST_TYPE":0,"FID":"ITH3"},"id":"ITH3"},{"type":"Feature","geometry":{"type":"Point","coordinates":[13.0495,46.1665]},"properties":{"NUTS_ID":"ITH4","LEVL_CODE":2,"CNTR_CODE":"IT","NAME_LATN":"Friuli-Venezia Giulia","NUTS_NAME":"Friuli-Venezia Giulia","MOUNT_TYPE":0,"URBN_TYPE":0,"COAST_TYPE":0,"FID":"ITH4"},"id":"ITH4"},{"type":"Feature","geometry":{"type":"Point","coordinates":[11.0296,44.5224]},"properties":{"NUTS_ID":"ITH5","LEVL_CODE":2,"CNTR_CODE":"IT","NAME_LATN":"Emilia-Romagna","NUTS_NAME":"Emilia-Romagna","MOUNT_TYPE":0,"URBN_TYPE":0,"COAST_TYPE":0,"FID":"ITH5"},"id":"ITH5"},{"type":"Feature","geometry":{"type":"Point","coordinates":[11.1306,43.4794]},"properties":{"NUTS_ID":"ITI1","LEVL_CODE":2,"CNTR_CODE":"IT","NAME_LATN":"Toscana","NUTS_NAME":"Toscana","MOUNT_TYPE":0,"URBN_TYPE":0,"COAST_TYPE":0,"FID":"ITI1"},"id":"ITI1"},{"type":"Feature","geometry":{"type":"Point","coordinates":[12.4893,42.9717]},"properties":{"NUTS_ID":"ITI2","LEVL_CODE":2,"CNTR_CODE":"IT","NAME_LATN":"Umbria","NUTS_NAME":"Umbria","MOUNT_TYPE":0,"URBN_TYPE":0,"COAST_TYPE":0,"FID":"ITI2"},"id":"ITI2"},{"type":"Feature","geometry":{"type":"Point","coordinates":[13.153,43.3477]},"properties":{"NUTS_ID":"ITI3","LEVL_CODE":2,"CNTR_CODE":"IT","NAME_LATN":"Marche","NUTS_NAME":"Marche","MOUNT_TYPE":0,"URBN_TYPE":0,"COAST_TYPE":0,"FID":"ITI3"},"id":"ITI3"},{"type":"Feature","geometry":{"type":"Point","coordinates":[12.7501,41.9898]},"properties":{"NUTS_ID":"ITI4","LEVL_CODE":2,"CNTR_CODE":"IT","NAME_LATN":"Lazio","NUTS_NAME":"Lazio","MOUNT_TYPE":0,"URBN_TYPE":0,"COAST_TYPE":0,"FID":"ITI4"},"id":"ITI4"},{"type":"Feature","geometry":{"type":"Point","coordinates":[9.5534,47.1383]},"properties":{"NUTS_ID":"LI00","LEVL_CODE":2,"CNTR_CODE":"LI","NAME_LATN":"Liechtenstein","NUTS_NAME":"Liechtenstein","MOUNT_TYPE":0,"URBN_TYPE":0,"COAST_TYPE":0,"FID":"LI00"},"id":"LI00"},{"type":"Feature","geometry":{"type":"Point","coordinates":[25.2289,54.8166]},"properties":{"NUTS_ID":"LT01","LEVL_CODE":2,"CNTR_CODE":"LT","NAME_LATN":"Sostinės regionas","NUTS_NAME":"Sostinės regionas","MOUNT_TYPE":0,"URBN_TYPE":0,"COAST_TYPE":0,"FID":"LT01"},"id":"LT01"},{"type":"Feature","geometry":{"type":"Point","coordinates":[23.6621,55.4314]},"properties":{"NUTS_ID":"LT02","LEVL_CODE":2,"CNTR_CODE":"LT","NAME_LATN":"Vidurio ir vakarų Lietuvos regionas","NUTS_NAME":"Vidurio ir vakarų Lietuvos regionas","MOUNT_TYPE":0,"URBN_TYPE":0,"COAST_TYPE":0,"FID":"LT02"},"id":"LT02"},{"type":"Feature","geometry":{"type":"Point","coordinates":[6.0943,49.771]},"properties":{"NUTS_ID":"LU00","LEVL_CODE":2,"CNTR_CODE":"LU","NAME_LATN":"Luxembourg","NUTS_NAME":"Luxembourg","MOUNT_TYPE":0,"URBN_TYPE":0,"COAST_TYPE":0,"FID":"LU00"},"id":"LU00"},{"type":"Feature","geometry":{"type":"Point","coordinates":[26.382,56.6829]},"properties":{"NUTS_ID":"LV00","LEVL_CODE":2,"CNTR_CODE":"LV","NAME_LATN":"Latvija","NUTS_NAME":"Latvija","MOUNT_TYPE":0,"URBN_TYPE":0,"COAST_TYPE":0,"FID":"LV00"},"id":"LV00"},{"type":"Feature","geometry":{"type":"Point","coordinates":[19.269,42.7721]},"properties":{"NUTS_ID":"ME00","LEVL_CODE":2,"CNTR_CODE":"ME","NAME_LATN":"Crna Gora","NUTS_NAME":"Црна Гора","MOUNT_TYPE":0,"URBN_TYPE":0,"COAST_TYPE":0,"FID":"ME00"},"id":"ME00"},{"type":"Feature","geometry":{"type":"Point","coordinates":[21.6966,41.5981]},"properties":{"NUTS_ID":"MK00","LEVL_CODE":2,"CNTR_CODE":"MK","NAME_LATN":"Severna Makedonija","NUTS_NAME":"Северна Македонија","MOUNT_TYPE":0,"URBN_TYPE":0,"COAST_TYPE":0,"FID":"MK00"},"id":"MK00"},{"type":"Feature","geometry":{"type":"Point","coordinates":[14.4312,35.886]},"properties":{"NUTS_ID":"MT00","LEVL_CODE":2,"CNTR_CODE":"MT","NAME_LATN":"Malta","NUTS_NAME":"Malta","MOUNT_TYPE":0,"URBN_TYPE":0,"COAST_TYPE":0,"FID":"MT00"},"id":"MT00"},{"type":"Feature","geometry":{"type":"Point","coordinates":[6.6929,53.2675]},"properties":{"NUTS_ID":"NL11","LEVL_CODE":2,"CNTR_CODE":"NL","NAME_LATN":"Groningen","NUTS_NAME":"Groningen","MOUNT_TYPE":0,"URBN_TYPE":0,"COAST_TYPE":0,"FID":"NL11"},"id":"NL11"},{"type":"Feature","geometry":{"type":"Point","coordinates":[5.8002,53.0649]},"properties":{"NUTS_ID":"NL12","LEVL_CODE":2,"CNTR_CODE":"NL","NAME_LATN":"Friesland (NL)","NUTS_NAME":"Friesland (NL)","MOUNT_TYPE":0,"URBN_TYPE":0,"COAST_TYPE":0,"FID":"NL12"},"id":"NL12"},{"type":"Feature","geometry":{"type":"Point","coordinates":[6.6292,52.8638]},"properties":{"NUTS_ID":"NL13","LEVL_CODE":2,"CNTR_CODE":"NL","NAME_LATN":"Drenthe","NUTS_NAME":"Drenthe","MOUNT_TYPE":0,"URBN_TYPE":0,"COAST_TYPE":0,"FID":"NL13"},"id":"NL13"},{"type":"Feature","geometry":{"type":"Point","coordinates":[6.4397,52.4452]},"properties":{"NUTS_ID":"NL21","LEVL_CODE":2,"CNTR_CODE":"NL","NAME_LATN":"Overijssel","NUTS_NAME":"Overijssel","MOUNT_TYPE":0,"URBN_TYPE":0,"COAST_TYPE":0,"FID":"NL21"},"id":"NL21"},{"type":"Feature","geometry":{"type":"Point","coordinates":[5.9378,52.0672]},"properties":{"NUTS_ID":"NL22","LEVL_CODE":2,"CNTR_CODE":"NL","NAME_LATN":"Gelderland","NUTS_NAME":"Gelderland","MOUNT_TYPE":0,"URBN_TYPE":0,"COAST_TYPE":0,"FID":"NL22"},"id":"NL22"},{"type":"Feature","geometry":{"type":"Point","coordinates":[5.4817,52.5438]},"properties":{"NUTS_ID":"NL23","LEVL_CODE":2,"CNTR_CODE":"NL","NAME_LATN":"Flevoland","NUTS_NAME":"Flevoland","MOUNT_TYPE":0,"URBN_TYPE":0,"COAST_TYPE":0,"FID":"NL23"},"id":"NL23"},{"type":"Feature","geometry":{"type":"Point","coordinates":[5.2003,52.0749]},"properties":{"NUTS_ID":"NL31","LEVL_CODE":2,"CNTR_CODE":"NL","NAME_LATN":"Utrecht","NUTS_NAME":"Utrecht","MOUNT_TYPE":0,"URBN_TYPE":0,"COAST_TYPE":0,"FID":"NL31"},"id":"NL31"},{"type":"Feature","geometry":{"type":"Point","coordinates":[4.9123,52.5945]},"properties":{"NUTS_ID":"NL32","LEVL_CODE":2,"CNTR_CODE":"NL","NAME_LATN":"Noord-Holland","NUTS_NAME":"Noord-Holland","MOUNT_TYPE":0,"URBN_TYPE":0,"COAST_TYPE":0,"FID":"NL32"},"id":"NL32"},{"type":"Feature","geometry":{"type":"Point","coordinates":[4.4867,51.9388]},"properties":{"NUTS_ID":"NL33","LEVL_CODE":2,"CNTR_CODE":"NL","NAME_LATN":"Zuid-Holland","NUTS_NAME":"Zuid-Holland","MOUNT_TYPE":0,"URBN_TYPE":0,"COAST_TYPE":0,"FID":"NL33"},"id":"NL33"},{"type":"Feature","geometry":{"type":"Point","coordinates":[3.7883,51.3073]},"properties":{"NUTS_ID":"NL34","LEVL_CODE":2,"CNTR_CODE":"NL","NAME_LATN":"Zeeland","NUTS_NAME":"Zeeland","MOUNT_TYPE":0,"URBN_TYPE":0,"COAST_TYPE":0,"FID":"NL34"},"id":"NL34"},{"type":"Feature","geometry":{"type":"Point","coordinates":[5.4595,51.5461]},"properties":{"NUTS_ID":"NL41","LEVL_CODE":2,"CNTR_CODE":"NL","NAME_LATN":"Noord-Brabant","NUTS_NAME":"Noord-Brabant","MOUNT_TYPE":0,"URBN_TYPE":0,"COAST_TYPE":0,"FID":"NL41"},"id":"NL41"},{"type":"Feature","geometry":{"type":"Point","coordinates":[5.9292,51.1854]},"properties":{"NUTS_ID":"NL42","LEVL_CODE":2,"CNTR_CODE":"NL","NAME_LATN":"Limburg (NL)","NUTS_NAME":"Limburg (NL)","MOUNT_TYPE":0,"URBN_TYPE":0,"COAST_TYPE":0,"FID":"NL42"},"id":"NL42"},{"type":"Feature","geometry":{"type":"Point","coordinates":[20.269,49.8534]},"properties":{"NUTS_ID":"PL21","LEVL_CODE":2,"CNTR_CODE":"PL","NAME_LATN":"Małopolskie","NUTS_NAME":"Małopolskie","MOUNT_TYPE":0,"URBN_TYPE":0,"COAST_TYPE":0,"FID":"PL21"},"id":"PL21"},{"type":"Feature","geometry":{"type":"Point","coordinates":[19.0098,50.3338]},"properties":{"NUTS_ID":"PL22","LEVL_CODE":2,"CNTR_CODE":"PL","NAME_LATN":"Śląskie","NUTS_NAME":"Śląskie","MOUNT_TYPE":0,"URBN_TYPE":0,"COAST_TYPE":0,"FID":"PL22"},"id":"PL22"},{"type":"Feature","geometry":{"type":"Point","coordinates":[16.6724,52.4977]},"properties":{"NUTS_ID":"PL41","LEVL_CODE":2,"CNTR_CODE":"PL","NAME_LATN":"Wielkopolskie","NUTS_NAME":"Wielkopolskie","MOUNT_TYPE":0,"URBN_TYPE":0,"COAST_TYPE":0,"FID":"PL41"},"id":"PL41"},{"type":"Feature","geometry":{"type":"Point","coordinates":[15.5715,53.5694]},"properties":{"NUTS_ID":"PL42","LEVL_CODE":2,"CNTR_CODE":"PL","NAME_LATN":"Zachodniopomorskie","NUTS_NAME":"Zachodniopomorskie","MOUNT_TYPE":0,"URBN_TYPE":0,"COAST_TYPE":0,"FID":"PL42"},"id":"PL42"},{"type":"Feature","geometry":{"type":"Point","coordinates":[15.3339,52.1704]},"properties":{"NUTS_ID":"PL43","LEVL_CODE":2,"CNTR_CODE":"PL","NAME_LATN":"Lubuskie","NUTS_NAME":"Lubuskie","MOUNT_TYPE":0,"URBN_TYPE":0,"COAST_TYPE":0,"FID":"PL43"},"id":"PL43"},{"type":"Feature","geometry":{"type":"Point","coordinates":[16.4117,51.0982]},"properties":{"NUTS_ID":"PL51","LEVL_CODE":2,"CNTR_CODE":"PL","NAME_LATN":"Dolnośląskie","NUTS_NAME":"Dolnośląskie","MOUNT_TYPE":0,"URBN_TYPE":0,"COAST_TYPE":0,"FID":"PL51"},"id":"PL51"},{"type":"Feature","geometry":{"type":"Point","coordinates":[17.9145,50.6548]},"properties":{"NUTS_ID":"PL52","LEVL_CODE":2,"CNTR_CODE":"PL","NAME_LATN":"Opolskie","NUTS_NAME":"Opolskie","MOUNT_TYPE":0,"URBN_TYPE":0,"COAST_TYPE":0,"FID":"PL52"},"id":"PL52"},{"type":"Feature","geometry":{"type":"Point","coordinates":[18.5077,53.08]},"properties":{"NUTS_ID":"PL61","LEVL_CODE":2,"CNTR_CODE":"PL","NAME_LATN":"Kujawsko-pomorskie","NUTS_NAME":"Kujawsko-pomorskie","MOUNT_TYPE":0,"URBN_TYPE":0,"COAST_TYPE":0,"FID":"PL61"},"id":"PL61"},{"type":"Feature","geometry":{"type":"Point","coordinates":[20.8301,53.8611]},"properties":{"NUTS_ID":"PL62","LEVL_CODE":2,"CNTR_CODE":"PL","NAME_LATN":"Warmińsko-mazurskie","NUTS_NAME":"Warmińsko-mazurskie","MOUNT_TYPE":0,"URBN_TYPE":0,"COAST_TYPE":0,"FID":"PL62"},"id":"PL62"},{"type":"Feature","geometry":{"type":"Point","coordinates":[18.0655,54.2886]},"properties":{"NUTS_ID":"PL63","LEVL_CODE":2,"CNTR_CODE":"PL","NAME_LATN":"Pomorskie","NUTS_NAME":"Pomorskie","MOUNT_TYPE":0,"URBN_TYPE":0,"COAST_TYPE":0,"FID":"PL63"},"id":"PL63"},{"type":"Feature","geometry":{"type":"Point","coordinates":[19.4079,51.6087]},"properties":{"NUTS_ID":"PL71","LEVL_CODE":2,"CNTR_CODE":"PL","NAME_LATN":"Łódzkie","NUTS_NAME":"Łódzkie","MOUNT_TYPE":0,"URBN_TYPE":0,"COAST_TYPE":0,"FID":"PL71"},"id":"PL71"},{"type":"Feature","geometry":{"type":"Point","coordinates":[20.7865,50.7667]},"properties":{"NUTS_ID":"PL72","LEVL_CODE":2,"CNTR_CODE":"PL","NAME_LATN":"Świętokrzyskie","NUTS_NAME":"Świętokrzyskie","MOUNT_TYPE":0,"URBN_TYPE":0,"COAST_TYPE":0,"FID":"PL72"},"id":"PL72"},{"type":"Feature","geometry":{"type":"Point","coordinates":[22.888,51.2295]},"properties":{"NUTS_ID":"PL81","LEVL_CODE":2,"CNTR_CODE":"PL","NAME_LATN":"Lubelskie","NUTS_NAME":"Lubelskie","MOUNT_TYPE":0,"URBN_TYPE":0,"COAST_TYPE":0,"FID":"PL81"},"id":"PL81"},{"type":"Feature","geometry":{"type":"Point","coordinates":[22.1554,49.9638]},"properties":{"NUTS_ID":"PL82","LEVL_CODE":2,"CNTR_CODE":"PL","NAME_LATN":"Podkarpackie","NUTS_NAME":"Podkarpackie","MOUNT_TYPE":0,"URBN_TYPE":0,"COAST_TYPE":0,"FID":"PL82"},"id":"PL82"},{"type":"Feature","geometry":{"type":"Point","coordinates":[22.9446,53.2669]},"properties":{"NUTS_ID":"PL84","LEVL_CODE":2,"CNTR_CODE":"PL","NAME_LATN":"Podlaskie","NUTS_NAME":"Podlaskie","MOUNT_TYPE":0,"URBN_TYPE":0,"COAST_TYPE":0,"FID":"PL84"},"id":"PL84"},{"type":"Feature","geometry":{"type":"Point","coordinates":[21.1387,52.2328]},"properties":{"NUTS_ID":"PL91","LEVL_CODE":2,"CNTR_CODE":"PL","NAME_LATN":"Warszawski stołeczny","NUTS_NAME":"Warszawski stołeczny","MOUNT_TYPE":0,"URBN_TYPE":0,"COAST_TYPE":0,"FID":"PL91"},"id":"PL91"},{"type":"Feature","geometry":{"type":"Point","coordinates":[21.2088,51.5285]},"properties":{"NUTS_ID":"PL92","LEVL_CODE":2,"CNTR_CODE":"PL","NAME_LATN":"Mazowiecki regionalny","NUTS_NAME":"Mazowiecki regionalny","MOUNT_TYPE":0,"URBN_TYPE":0,"COAST_TYPE":0,"FID":"PL92"},"id":"PL92"},{"type":"Feature","geometry":{"type":"Point","coordinates":[-7.6933,41.4531]},"properties":{"NUTS_ID":"PT11","LEVL_CODE":2,"CNTR_CODE":"PT","NAME_LATN":"Norte","NUTS_NAME":"Norte","MOUNT_TYPE":0,"URBN_TYPE":0,"COAST_TYPE":0,"FID":"PT11"},"id":"PT11"},{"type":"Feature","geometry":{"type":"Point","coordinates":[-8.1299,37.2026]},"properties":{"NUTS_ID":"PT15","LEVL_CODE":2,"CNTR_CODE":"PT","NAME_LATN":"Algarve","NUTS_NAME":"Algarve","MOUNT_TYPE":0,"URBN_TYPE":0,"COAST_TYPE":0,"FID":"PT15"},"id":"PT15"},{"type":"Feature","geometry":{"type":"Point","coordinates":[-7.9946,40.1425]},"properties":{"NUTS_ID":"PT16","LEVL_CODE":2,"CNTR_CODE":"PT","NAME_LATN":"Centro (PT)","NUTS_NAME":"Centro (PT)","MOUNT_TYPE":0,"URBN_TYPE":0,"COAST_TYPE":0,"FID":"PT16"},"id":"PT16"},{"type":"Feature","geometry":{"type":"Point","coordinates":[-8.8878,38.6221]},"properties":{"NUTS_ID":"PT17","LEVL_CODE":2,"CNTR_CODE":"PT","NAME_LATN":"Área Metropolitana de Lisboa","NUTS_NAME":"Área Metropolitana de Lisboa","MOUNT_TYPE":0,"URBN_TYPE":0,"COAST_TYPE":0,"FID":"PT17"},"id":"PT17"},{"type":"Feature","geometry":{"type":"Point","coordinates":[-8.0017,38.4793]},"properties":{"NUTS_ID":"PT18","LEVL_CODE":2,"CNTR_CODE":"PT","NAME_LATN":"Alentejo","NUTS_NAME":"Alentejo","MOUNT_TYPE":0,"URBN_TYPE":0,"COAST_TYPE":0,"FID":"PT18"},"id":"PT18"},{"type":"Feature","geometry":{"type":"Point","coordinates":[-25.3659,37.7846]},"properties":{"NUTS_ID":"PT20","LEVL_CODE":2,"CNTR_CODE":"PT","NAME_LATN":"Região Autónoma dos Açores","NUTS_NAME":"Região Autónoma dos Açores","MOUNT_TYPE":0,"URBN_TYPE":0,"COAST_TYPE":0,"FID":"PT20"},"id":"PT20"},{"type":"Feature","geometry":{"type":"Point","coordinates":[-16.9503,32.7326]},"properties":{"NUTS_ID":"PT30","LEVL_CODE":2,"CNTR_CODE":"PT","NAME_LATN":"Região Autónoma da Madeira","NUTS_NAME":"Região Autónoma da Madeira","MOUNT_TYPE":0,"URBN_TYPE":0,"COAST_TYPE":0,"FID":"PT30"},"id":"PT30"},{"type":"Feature","geometry":{"type":"Point","coordinates":[23.3458,47.225]},"properties":{"NUTS_ID":"RO11","LEVL_CODE":2,"CNTR_CODE":"RO","NAME_LATN":"Nord-Vest","NUTS_NAME":"Nord-Vest","MOUNT_TYPE":0,"URBN_TYPE":0,"COAST_TYPE":0,"FID":"RO11"},"id":"RO11"},{"type":"Feature","geometry":{"type":"Point","coordinates":[24.8114,46.186]},"properties":{"NUTS_ID":"RO12","LEVL_CODE":2,"CNTR_CODE":"RO","NAME_LATN":"Centru","NUTS_NAME":"Centru","MOUNT_TYPE":0,"URBN_TYPE":0,"COAST_TYPE":0,"FID":"RO12"},"id":"RO12"},{"type":"Feature","geometry":{"type":"Point","coordinates":[26.6947,47.0893]},"properties":{"NUTS_ID":"RO21","LEVL_CODE":2,"CNTR_CODE":"RO","NAME_LATN":"Nord-Est","NUTS_NAME":"Nord-Est","MOUNT_TYPE":0,"URBN_TYPE":0,"COAST_TYPE":0,"FID":"RO21"},"id":"RO21"},{"type":"Feature","geometry":{"type":"Point","coordinates":[26.9744,45.4531]},"properties":{"NUTS_ID":"RO22","LEVL_CODE":2,"CNTR_CODE":"RO","NAME_LATN":"Sud-Est","NUTS_NAME":"Sud-Est","MOUNT_TYPE":0,"URBN_TYPE":0,"COAST_TYPE":0,"FID":"RO22"},"id":"RO22"},{"type":"Feature","geometry":{"type":"Point","coordinates":[25.3492,44.5192]},"properties":{"NUTS_ID":"RO31","LEVL_CODE":2,"CNTR_CODE":"RO","NAME_LATN":"Sud-Muntenia","NUTS_NAME":"Sud-Muntenia","MOUNT_TYPE":0,"URBN_TYPE":0,"COAST_TYPE":0,"FID":"RO31"},"id":"RO31"},{"type":"Feature","geometry":{"type":"Point","coordinates":[26.144,44.5139]},"properties":{"NUTS_ID":"RO32","LEVL_CODE":2,"CNTR_CODE":"RO","NAME_LATN":"Bucureşti-Ilfov","NUTS_NAME":"Bucureşti-Ilfov","MOUNT_TYPE":0,"URBN_TYPE":0,"COAST_TYPE":0,"FID":"RO32"},"id":"RO32"},{"type":"Feature","geometry":{"type":"Point","coordinates":[23.6859,44.5996]},"properties":{"NUTS_ID":"RO41","LEVL_CODE":2,"CNTR_CODE":"RO","NAME_LATN":"Sud-Vest Oltenia","NUTS_NAME":"Sud-Vest Oltenia","MOUNT_TYPE":0,"URBN_TYPE":0,"COAST_TYPE":0,"FID":"RO41"},"id":"RO41"},{"type":"Feature","geometry":{"type":"Point","coordinates":[21.9876,45.7133]},"properties":{"NUTS_ID":"RO42","LEVL_CODE":2,"CNTR_CODE":"RO","NAME_LATN":"Vest","NUTS_NAME":"Vest","MOUNT_TYPE":0,"URBN_TYPE":0,"COAST_TYPE":0,"FID":"RO42"},"id":"RO42"},{"type":"Feature","geometry":{"type":"Point","coordinates":[20.427,44.6593]},"properties":{"NUTS_ID":"RS11","LEVL_CODE":2,"CNTR_CODE":"RS","NAME_LATN":"City of Belgrade","NUTS_NAME":"Београдски регион","MOUNT_TYPE":0,"URBN_TYPE":0,"COAST_TYPE":0,"FID":"RS11"},"id":"RS11"},{"type":"Feature","geometry":{"type":"Point","coordinates":[20.0822,45.4071]},"properties":{"NUTS_ID":"RS12","LEVL_CODE":2,"CNTR_CODE":"RS","NAME_LATN":"Autonomous Province of Vojvodina","NUTS_NAME":"Регион Војводине","MOUNT_TYPE":0,"URBN_TYPE":0,"COAST_TYPE":0,"FID":"RS12"},"id":"RS12"},{"type":"Feature","geometry":{"type":"Point","coordinates":[20.3387,43.8543]},"properties":{"NUTS_ID":"RS21","LEVL_CODE":2,"CNTR_CODE":"RS","NAME_LATN":"Region Šumadije i Zapadne Srbije","NUTS_NAME":"Регион Шумадије и Западне Србије","MOUNT_TYPE":0,"URBN_TYPE":0,"COAST_TYPE":0,"FID":"RS21"},"id":"RS21"},{"type":"Feature","geometry":{"type":"Point","coordinates":[21.9268,43.5784]},"properties":{"NUTS_ID":"RS22","LEVL_CODE":2,"CNTR_CODE":"RS","NAME_LATN":"Region Južne i Istočne Srbije","NUTS_NAME":"Регион Јужне и Источне Србије","MOUNT_TYPE":0,"URBN_TYPE":0,"COAST_TYPE":0,"FID":"RS22"},"id":"RS22"},{"type":"Feature","geometry":{"type":"Point","coordinates":[17.7435,59.3515]},"properties":{"NUTS_ID":"SE11","LEVL_CODE":2,"CNTR_CODE":"SE","NAME_LATN":"Stockholm","NUTS_NAME":"Stockholm","MOUNT_TYPE":0,"URBN_TYPE":0,"COAST_TYPE":0,"FID":"SE11"},"id":"SE11"},{"type":"Feature","geometry":{"type":"Point","coordinates":[16.1149,59.2274]},"properties":{"NUTS_ID":"SE12","LEVL_CODE":2,"CNTR_CODE":"SE","NAME_LATN":"Östra Mellansverige","NUTS_NAME":"Östra Mellansverige","MOUNT_TYPE":0,"URBN_TYPE":0,"COAST_TYPE":0,"FID":"SE12"},"id":"SE12"},{"type":"Feature","geometry":{"type":"Point","coordinates":[14.9913,57.2133]},"properties":{"NUTS_ID":"SE21","LEVL_CODE":2,"CNTR_CODE":"SE","NAME_LATN":"Småland med öarna","NUTS_NAME":"Småland med öarna","MOUNT_TYPE":0,"URBN_TYPE":0,"COAST_TYPE":0,"FID":"SE21"},"id":"SE21"},{"type":"Feature","geometry":{"type":"Point","coordinates":[13.5247,55.9113]},"properties":{"NUTS_ID":"SE22","LEVL_CODE":2,"CNTR_CODE":"SE","NAME_LATN":"Sydsverige","NUTS_NAME":"Sydsverige","MOUNT_TYPE":0,"URBN_TYPE":0,"COAST_TYPE":0,"FID":"SE22"},"id":"SE22"},{"type":"Feature","geometry":{"type":"Point","coordinates":[12.872,58.1109]},"properties":{"NUTS_ID":"SE23","LEVL_CODE":2,"CNTR_CODE":"SE","NAME_LATN":"Västsverige","NUTS_NAME":"Västsverige","MOUNT_TYPE":0,"URBN_TYPE":0,"COAST_TYPE":0,"FID":"SE23"},"id":"SE23"},{"type":"Feature","geometry":{"type":"Point","coordinates":[14.5481,60.7468]},"properties":{"NUTS_ID":"SE31","LEVL_CODE":2,"CNTR_CODE":"SE","NAME_LATN":"Norra Mellansverige","NUTS_NAME":"Norra Mellansverige","MOUNT_TYPE":0,"URBN_TYPE":0,"COAST_TYPE":0,"FID":"SE31"},"id":"SE31"},{"type":"Feature","geometry":{"type":"Point","coordinates":[15.1767,63.215]},"properties":{"NUTS_ID":"SE32","LEVL_CODE":2,"CNTR_CODE":"SE","NAME_LATN":"Mellersta Norrland","NUTS_NAME":"Mellersta Norrland","MOUNT_TYPE":0,"URBN_TYPE":0,"COAST_TYPE":0,"FID":"SE32"},"id":"SE32"},{"type":"Feature","geometry":{"type":"Point","coordinates":[19.2906,66.2411]},"properties":{"NUTS_ID":"SE33","LEVL_CODE":2,"CNTR_CODE":"SE","NAME_LATN":"Övre Norrland","NUTS_NAME":"Övre Norrland","MOUNT_TYPE":0,"URBN_TYPE":0,"COAST_TYPE":0,"FID":"SE33"},"id":"SE33"},{"type":"Feature","geometry":{"type":"Point","coordinates":[15.2754,46.1724]},"properties":{"NUTS_ID":"SI03","LEVL_CODE":2,"CNTR_CODE":"SI","NAME_LATN":"Vzhodna Slovenija","NUTS_NAME":"Vzhodna Slovenija","MOUNT_TYPE":0,"URBN_TYPE":0,"COAST_TYPE":0,"FID":"SI03"},"id":"SI03"},{"type":"Feature","geometry":{"type":"Point","coordinates":[14.2228,46.1532]},"properties":{"NUTS_ID":"SI04","LEVL_CODE":2,"CNTR_CODE":"SI","NAME_LATN":"Zahodna Slovenija","NUTS_NAME":"Zahodna Slovenija","MOUNT_TYPE":0,"URBN_TYPE":0,"COAST_TYPE":0,"FID":"SI04"},"id":"SI04"},{"type":"Feature","geometry":{"type":"Point","coordinates":[17.1607,48.2998]},"properties":{"NUTS_ID":"SK01","LEVL_CODE":2,"CNTR_CODE":"SK","NAME_LATN":"Bratislavský kraj","NUTS_NAME":"Bratislavský kraj","MOUNT_TYPE":0,"URBN_TYPE":0,"COAST_TYPE":0,"FID":"SK01"},"id":"SK01"},{"type":"Feature","geometry":{"type":"Point","coordinates":[18.0701,48.4057]},"properties":{"NUTS_ID":"SK02","LEVL_CODE":2,"CNTR_CODE":"SK","NAME_LATN":"Západné Slovensko","NUTS_NAME":"Západné Slovensko","MOUNT_TYPE":0,"URBN_TYPE":0,"COAST_TYPE":0,"FID":"SK02"},"id":"SK02"},{"type":"Feature","geometry":{"type":"Point","coordinates":[19.3647,48.796]},"properties":{"NUTS_ID":"SK03","LEVL_CODE":2,"CNTR_CODE":"SK","NAME_LATN":"Stredné Slovensko","NUTS_NAME":"Stredné Slovensko","MOUNT_TYPE":0,"URBN_TYPE":0,"COAST_TYPE":0,"FID":"SK03"},"id":"SK03"},{"type":"Feature","geometry":{"type":"Point","coordinates":[21.2527,48.9446]},"properties":{"NUTS_ID":"SK04","LEVL_CODE":2,"CNTR_CODE":"SK","NAME_LATN":"Východné Slovensko","NUTS_NAME":"Východné Slovensko","MOUNT_TYPE":0,"URBN_TYPE":0,"COAST_TYPE":0,"FID":"SK04"},"id":"SK04"},{"type":"Feature","geometry":{"type":"Point","coordinates":[28.4372,41.2186]},"properties":{"NUTS_ID":"TR10","LEVL_CODE":2,"CNTR_CODE":"TR","NAME_LATN":"İstanbul","NUTS_NAME":"İstanbul","MOUNT_TYPE":0,"URBN_TYPE":0,"COAST_TYPE":0,"FID":"TR10"},"id":"TR10"},{"type":"Feature","geometry":{"type":"Point","coordinates":[27.1771,41.3638]},"properties":{"NUTS_ID":"TR21","LEVL_CODE":2,"CNTR_CODE":"TR","NAME_LATN":"Tekirdağ, Edirne, Kırklareli","NUTS_NAME":"Tekirdağ, Edirne, Kırklareli","MOUNT_TYPE":0,"URBN_TYPE":0,"COAST_TYPE":0,"FID":"TR21"},"id":"TR21"},{"type":"Feature","geometry":{"type":"Point","coordinates":[27.5552,39.8295]},"properties":{"NUTS_ID":"TR22","LEVL_CODE":2,"CNTR_CODE":"TR","NAME_LATN":"Balıkesir, Çanakkale","NUTS_NAME":"Balıkesir, Çanakkale","MOUNT_TYPE":0,"URBN_TYPE":0,"COAST_TYPE":0,"FID":"TR22"},"id":"TR22"},{"type":"Feature","geometry":{"type":"Point","coordinates":[27.4507,38.2226]},"properties":{"NUTS_ID":"TR31","LEVL_CODE":2,"CNTR_CODE":"TR","NAME_LATN":"İzmir","NUTS_NAME":"İzmir","MOUNT_TYPE":0,"URBN_TYPE":0,"COAST_TYPE":0,"FID":"TR31"},"id":"TR31"},{"type":"Feature","geometry":{"type":"Point","coordinates":[28.6686,37.4862]},"properties":{"NUTS_ID":"TR32","LEVL_CODE":2,"CNTR_CODE":"TR","NAME_LATN":"Aydın, Denizli, Muğla","NUTS_NAME":"Aydın, Denizli, Muğla","MOUNT_TYPE":0,"URBN_TYPE":0,"COAST_TYPE":0,"FID":"TR32"},"id":"TR32"},{"type":"Feature","geometry":{"type":"Point","coordinates":[29.3921,39.0271]},"properties":{"NUTS_ID":"TR33","LEVL_CODE":2,"CNTR_CODE":"TR","NAME_LATN":"Manisa, Afyonkarahisar, Kütahya, Uşak","NUTS_NAME":"Manisa, Afyonkarahisar, Kütahya, Uşak","MOUNT_TYPE":0,"URBN_TYPE":0,"COAST_TYPE":0,"FID":"TR33"},"id":"TR33"},{"type":"Feature","geometry":{"type":"Point","coordinates":[30.0705,40.0322]},"properties":{"NUTS_ID":"TR41","LEVL_CODE":2,"CNTR_CODE":"TR","NAME_LATN":"Bursa, Eskişehir, Bilecik","NUTS_NAME":"Bursa, Eskişehir, Bilecik","MOUNT_TYPE":0,"URBN_TYPE":0,"COAST_TYPE":0,"FID":"TR41"},"id":"TR41"},{"type":"Feature","geometry":{"type":"Point","coordinates":[30.9257,40.7122]},"properties":{"NUTS_ID":"TR42","LEVL_CODE":2,"CNTR_CODE":"TR","NAME_LATN":"Kocaeli, Sakarya, Düzce, Bolu, Yalova","NUTS_NAME":"Kocaeli, Sakarya, Düzce, Bolu, Yalova","MOUNT_TYPE":0,"URBN_TYPE":0,"COAST_TYPE":0,"FID":"TR42"},"id":"TR42"},{"type":"Feature","geometry":{"type":"Point","coordinates":[32.5952,39.7927]},"properties":{"NUTS_ID":"TR51","LEVL_CODE":2,"CNTR_CODE":"TR","NAME_LATN":"Ankara","NUTS_NAME":"Ankara","MOUNT_TYPE":0,"URBN_TYPE":0,"COAST_TYPE":0,"FID":"TR51"},"id":"TR51"},{"type":"Feature","geometry":{"type":"Point","coordinates":[32.7078,37.853]},"properties":{"NUTS_ID":"TR52","LEVL_CODE":2,"CNTR_CODE":"TR","NAME_LATN":"Konya, Karaman","NUTS_NAME":"Konya, Karaman","MOUNT_TYPE":0,"URBN_TYPE":0,"COAST_TYPE":0,"FID":"TR52"},"id":"TR52"},{"type":"Feature","geometry":{"type":"Point","coordinates":[30.9185,37.6071]},"properties":{"NUTS_ID":"TR61","LEVL_CODE":2,"CNTR_CODE":"TR","NAME_LATN":"Antalya, Isparta, Burdur","NUTS_NAME":"Antalya, Isparta, Burdur","MOUNT_TYPE":0,"URBN_TYPE":0,"COAST_TYPE":0,"FID":"TR61"},"id":"TR61"},{"type":"Feature","geometry":{"type":"Point","coordinates":[35.4737,37.1632]},"properties":{"NUTS_ID":"TR62","LEVL_CODE":2,"CNTR_CODE":"TR","NAME_LATN":"Adana, Mersin","NUTS_NAME":"Adana, Mersin","MOUNT_TYPE":0,"URBN_TYPE":0,"COAST_TYPE":0,"FID":"TR62"},"id":"TR62"},{"type":"Feature","geometry":{"type":"Point","coordinates":[36.7707,37.8993]},"properties":{"NUTS_ID":"TR63","LEVL_CODE":2,"CNTR_CODE":"TR","NAME_LATN":"Hatay, Kahramanmaraş, Osmaniye","NUTS_NAME":"Hatay, Kahramanmaraş, Osmaniye","MOUNT_TYPE":0,"URBN_TYPE":0,"COAST_TYPE":0,"FID":"TR63"},"id":"TR63"},{"type":"Feature","geometry":{"type":"Point","coordinates":[34.2196,38.7572]},"properties":{"NUTS_ID":"TR71","LEVL_CODE":2,"CNTR_CODE":"TR","NAME_LATN":"Kırıkkale, Aksaray, Niğde, Nevşehir, Kırşehir","NUTS_NAME":"Kırıkkale, Aksaray, Niğde, Nevşehir, Kırşehir","MOUNT_TYPE":0,"URBN_TYPE":0,"COAST_TYPE":0,"FID":"TR71"},"id":"TR71"},{"type":"Feature","geometry":{"type":"Point","coordinates":[36.3987,39.3094]},"properties":{"NUTS_ID":"TR72","LEVL_CODE":2,"CNTR_CODE":"TR","NAME_LATN":"Kayseri, Sivas, Yozgat","NUTS_NAME":"Kayseri, Sivas, Yozgat","MOUNT_TYPE":0,"URBN_TYPE":0,"COAST_TYPE":0,"FID":"TR72"},"id":"TR72"},{"type":"Feature","geometry":{"type":"Point","coordinates":[32.3423,41.2956]},"properties":{"NUTS_ID":"TR81","LEVL_CODE":2,"CNTR_CODE":"TR","NAME_LATN":"Zonguldak, Karabük, Bartın","NUTS_NAME":"Zonguldak, Karabük, Bartın","MOUNT_TYPE":0,"URBN_TYPE":0,"COAST_TYPE":0,"FID":"TR81"},"id":"TR81"},{"type":"Feature","geometry":{"type":"Point","coordinates":[33.863,41.3029]},"properties":{"NUTS_ID":"TR82","LEVL_CODE":2,"CNTR_CODE":"TR","NAME_LATN":"Kastamonu, Çankırı, Sinop","NUTS_NAME":"Kastamonu, Çankırı, Sinop","MOUNT_TYPE":0,"URBN_TYPE":0,"COAST_TYPE":0,"FID":"TR82"},"id":"TR82"},{"type":"Feature","geometry":{"type":"Point","coordinates":[35.6272,40.7051]},"properties":{"NUTS_ID":"TR83","LEVL_CODE":2,"CNTR_CODE":"TR","NAME_LATN":"Samsun, Tokat, Çorum, Amasya","NUTS_NAME":"Samsun, Tokat, Çorum, Amasya","MOUNT_TYPE":0,"URBN_TYPE":0,"COAST_TYPE":0,"FID":"TR83"},"id":"TR83"},{"type":"Feature","geometry":{"type":"Point","coordinates":[39.6499,40.7675]},"properties":{"NUTS_ID":"TR90","LEVL_CODE":2,"CNTR_CODE":"TR","NAME_LATN":"Trabzon, Ordu, Giresun, Rize, Artvin, Gümüşhane","NUTS_NAME":"Trabzon, Ordu, Giresun, Rize, Artvin, Gümüşhane","MOUNT_TYPE":0,"URBN_TYPE":0,"COAST_TYPE":0,"FID":"TR90"},"id":"TR90"},{"type":"Feature","geometry":{"type":"Point","coordinates":[40.7694,39.9544]},"properties":{"NUTS_ID":"TRA1","LEVL_CODE":2,"CNTR_CODE":"TR","NAME_LATN":"Erzurum, Erzincan, Bayburt","NUTS_NAME":"Erzurum, Erzincan, Bayburt","MOUNT_TYPE":0,"URBN_TYPE":0,"COAST_TYPE":0,"FID":"TRA1"},"id":"TRA1"},{"type":"Feature","geometry":{"type":"Point","coordinates":[43.1979,40.1624]},"properties":{"NUTS_ID":"TRA2","LEVL_CODE":2,"CNTR_CODE":"TR","NAME_LATN":"Ağrı, Kars, Iğdır, Ardahan","NUTS_NAME":"Ağrı, Kars, Iğdır, Ardahan","MOUNT_TYPE":0,"URBN_TYPE":0,"COAST_TYPE":0,"FID":"TRA2"},"id":"TRA2"},{"type":"Feature","geometry":{"type":"Point","coordinates":[39.3088,38.816]},"properties":{"NUTS_ID":"TRB1","LEVL_CODE":2,"CNTR_CODE":"TR","NAME_LATN":"Malatya, Elazığ, Bingöl, Tunceli","NUTS_NAME":"Malatya, Elazığ, Bingöl, Tunceli","MOUNT_TYPE":0,"URBN_TYPE":0,"COAST_TYPE":0,"FID":"TRB1"},"id":"TRB1"},{"type":"Feature","geometry":{"type":"Point","coordinates":[43.1179,38.4148]},"properties":{"NUTS_ID":"TRB2","LEVL_CODE":2,"CNTR_CODE":"TR","NAME_LATN":"Van, Muş, Bitlis, Hakkari","NUTS_NAME":"Van, Muş, Bitlis, Hakkari","MOUNT_TYPE":0,"URBN_TYPE":0,"COAST_TYPE":0,"FID":"TRB2"},"id":"TRB2"},{"type":"Feature","geometry":{"type":"Point","coordinates":[37.1299,36.9478]},"properties":{"NUTS_ID":"TRC1","LEVL_CODE":2,"CNTR_CODE":"TR","NAME_LATN":"Gaziantep, Adıyaman, Kilis","NUTS_NAME":"Gaziantep, Adıyaman, Kilis","MOUNT_TYPE":0,"URBN_TYPE":0,"COAST_TYPE":0,"FID":"TRC1"},"id":"TRC1"},{"type":"Feature","geometry":{"type":"Point","coordinates":[40.5043,38.0763]},"properties":{"NUTS_ID":"TRC2","LEVL_CODE":2,"CNTR_CODE":"TR","NAME_LATN":"Şanlıurfa, Diyarbakır","NUTS_NAME":"Şanlıurfa, Diyarbakır","MOUNT_TYPE":0,"URBN_TYPE":0,"COAST_TYPE":0,"FID":"TRC2"},"id":"TRC2"},{"type":"Feature","geometry":{"type":"Point","coordinates":[41.6596,37.5875]},"properties":{"NUTS_ID":"TRC3","LEVL_CODE":2,"CNTR_CODE":"TR","NAME_LATN":"Mardin, Batman, Şırnak, Siirt","NUTS_NAME":"Mardin, Batman, Şırnak, Siirt","MOUNT_TYPE":0,"URBN_TYPE":0,"COAST_TYPE":0,"FID":"TRC3"},"id":"TRC3"},{"type":"Feature","geometry":{"type":"Point","coordinates":[-1.7005,54.6684]},"properties":{"NUTS_ID":"UKC1","LEVL_CODE":2,"CNTR_CODE":"UK","NAME_LATN":"Tees Valley and Durham","NUTS_NAME":"Tees Valley and Durham","MOUNT_TYPE":0,"URBN_TYPE":0,"COAST_TYPE":0,"FID":"UKC1"},"id":"UKC1"},{"type":"Feature","geometry":{"type":"Point","coordinates":[-2.0012,55.2213]},"properties":{"NUTS_ID":"UKC2","LEVL_CODE":2,"CNTR_CODE":"UK","NAME_LATN":"Northumberland and Tyne and Wear","NUTS_NAME":"Northumberland and Tyne and Wear","MOUNT_TYPE":0,"URBN_TYPE":0,"COAST_TYPE":0,"FID":"UKC2"},"id":"UKC2"},{"type":"Feature","geometry":{"type":"Point","coordinates":[-2.8724,54.5973]},"properties":{"NUTS_ID":"UKD1","LEVL_CODE":2,"CNTR_CODE":"UK","NAME_LATN":"Cumbria","NUTS_NAME":"Cumbria","MOUNT_TYPE":0,"URBN_TYPE":0,"COAST_TYPE":0,"FID":"UKD1"},"id":"UKD1"},{"type":"Feature","geometry":{"type":"Point","coordinates":[-2.2804,53.5121]},"properties":{"NUTS_ID":"UKD3","LEVL_CODE":2,"CNTR_CODE":"UK","NAME_LATN":"Greater Manchester","NUTS_NAME":"Greater Manchester","MOUNT_TYPE":0,"URBN_TYPE":0,"COAST_TYPE":0,"FID":"UKD3"},"id":"UKD3"},{"type":"Feature","geometry":{"type":"Point","coordinates":[-2.5722,53.849]},"properties":{"NUTS_ID":"UKD4","LEVL_CODE":2,"CNTR_CODE":"UK","NAME_LATN":"Lancashire","NUTS_NAME":"Lancashire","MOUNT_TYPE":0,"URBN_TYPE":0,"COAST_TYPE":0,"FID":"UKD4"},"id":"UKD4"},{"type":"Feature","geometry":{"type":"Point","coordinates":[-2.5124,53.206]},"properties":{"NUTS_ID":"UKD6","LEVL_CODE":2,"CNTR_CODE":"UK","NAME_LATN":"Cheshire","NUTS_NAME":"Cheshire","MOUNT_TYPE":0,"URBN_TYPE":0,"COAST_TYPE":0,"FID":"UKD6"},"id":"UKD6"},{"type":"Feature","geometry":{"type":"Point","coordinates":[-2.822,53.4125]},"properties":{"NUTS_ID":"UKD7","LEVL_CODE":2,"CNTR_CODE":"UK","NAME_LATN":"Merseyside","NUTS_NAME":"Merseyside","MOUNT_TYPE":0,"URBN_TYPE":0,"COAST_TYPE":0,"FID":"UKD7"},"id":"UKD7"},{"type":"Feature","geometry":{"type":"Point","coordinates":[-0.5216,53.8955]},"properties":{"NUTS_ID":"UKE1","LEVL_CODE":2,"CNTR_CODE":"UK","NAME_LATN":"East Yorkshire and Northern Lincolnshire","NUTS_NAME":"East Yorkshire and Northern Lincolnshire","MOUNT_TYPE":0,"URBN_TYPE":0,"COAST_TYPE":0,"FID":"UKE1"},"id":"UKE1"},{"type":"Feature","geometry":{"type":"Point","coordinates":[-1.4153,54.182]},"properties":{"NUTS_ID":"UKE2","LEVL_CODE":2,"CNTR_CODE":"UK","NAME_LATN":"North Yorkshire","NUTS_NAME":"North Yorkshire","MOUNT_TYPE":0,"URBN_TYPE":0,"COAST_TYPE":0,"FID":"UKE2"},"id":"UKE2"},{"type":"Feature","geometry":{"type":"Point","coordinates":[-1.3437,53.4546]},"properties":{"NUTS_ID":"UKE3","LEVL_CODE":2,"CNTR_CODE":"UK","NAME_LATN":"South Yorkshire","NUTS_NAME":"South Yorkshire","MOUNT_TYPE":0,"URBN_TYPE":0,"COAST_TYPE":0,"FID":"UKE3"},"id":"UKE3"},{"type":"Feature","geometry":{"type":"Point","coordinates":[-1.7053,53.7283]},"properties":{"NUTS_ID":"UKE4","LEVL_CODE":2,"CNTR_CODE":"UK","NAME_LATN":"West Yorkshire","NUTS_NAME":"West Yorkshire","MOUNT_TYPE":0,"URBN_TYPE":0,"COAST_TYPE":0,"FID":"UKE4"},"id":"UKE4"},{"type":"Feature","geometry":{"type":"Point","coordinates":[-1.4046,53.0705]},"properties":{"NUTS_ID":"UKF1","LEVL_CODE":2,"CNTR_CODE":"UK","NAME_LATN":"Derbyshire and Nottinghamshire","NUTS_NAME":"Derbyshire and Nottinghamshire","MOUNT_TYPE":0,"URBN_TYPE":0,"COAST_TYPE":0,"FID":"UKF1"},"id":"UKF1"},{"type":"Feature","geometry":{"type":"Point","coordinates":[-0.9539,52.5014]},"properties":{"NUTS_ID":"UKF2","LEVL_CODE":2,"CNTR_CODE":"UK","NAME_LATN":"Leicestershire, Rutland and Northamptonshire","NUTS_NAME":"Leicestershire, Rutland and Northamptonshire","MOUNT_TYPE":0,"URBN_TYPE":0,"COAST_TYPE":0,"FID":"UKF2"},"id":"UKF2"},{"type":"Feature","geometry":{"type":"Point","coordinates":[-0.2667,53.0953]},"properties":{"NUTS_ID":"UKF3","LEVL_CODE":2,"CNTR_CODE":"UK","NAME_LATN":"Lincolnshire","NUTS_NAME":"Lincolnshire","MOUNT_TYPE":0,"URBN_TYPE":0,"COAST_TYPE":0,"FID":"UKF3"},"id":"UKF3"},{"type":"Feature","geometry":{"type":"Point","coordinates":[-2.1682,52.2119]},"properties":{"NUTS_ID":"UKG1","LEVL_CODE":2,"CNTR_CODE":"UK","NAME_LATN":"Herefordshire, Worcestershire and Warwickshire","NUTS_NAME":"Herefordshire, Worcestershire and Warwickshire","MOUNT_TYPE":0,"URBN_TYPE":0,"COAST_TYPE":0,"FID":"UKG1"},"id":"UKG1"},{"type":"Feature","geometry":{"type":"Point","coordinates":[-2.4072,52.7367]},"properties":{"NUTS_ID":"UKG2","LEVL_CODE":2,"CNTR_CODE":"UK","NAME_LATN":"Shropshire and Staffordshire","NUTS_NAME":"Shropshire and Staffordshire","MOUNT_TYPE":0,"URBN_TYPE":0,"COAST_TYPE":0,"FID":"UKG2"},"id":"UKG2"},{"type":"Feature","geometry":{"type":"Point","coordinates":[-1.9345,52.4987]},"properties":{"NUTS_ID":"UKG3","LEVL_CODE":2,"CNTR_CODE":"UK","NAME_LATN":"West Midlands","NUTS_NAME":"West Midlands","MOUNT_TYPE":0,"URBN_TYPE":0,"COAST_TYPE":0,"FID":"UKG3"},"id":"UKG3"},{"type":"Feature","geometry":{"type":"Point","coordinates":[0.7184,52.4502]},"properties":{"NUTS_ID":"UKH1","LEVL_CODE":2,"CNTR_CODE":"UK","NAME_LATN":"East Anglia","NUTS_NAME":"East Anglia","MOUNT_TYPE":0,"URBN_TYPE":0,"COAST_TYPE":0,"FID":"UKH1"},"id":"UKH1"},{"type":"Feature","geometry":{"type":"Point","coordinates":[-0.3242,51.9386]},"properties":{"NUTS_ID":"UKH2","LEVL_CODE":2,"CNTR_CODE":"UK","NAME_LATN":"Bedfordshire and Hertfordshire","NUTS_NAME":"Bedfordshire and Hertfordshire","MOUNT_TYPE":0,"URBN_TYPE":0,"COAST_TYPE":0,"FID":"UKH2"},"id":"UKH2"},{"type":"Feature","geometry":{"type":"Point","coordinates":[0.4809,51.799]},"properties":{"NUTS_ID":"UKH3","LEVL_CODE":2,"CNTR_CODE":"UK","NAME_LATN":"Essex","NUTS_NAME":"Essex","MOUNT_TYPE":0,"URBN_TYPE":0,"COAST_TYPE":0,"FID":"UKH3"},"id":"UKH3"},{"type":"Feature","geometry":{"type":"Point","coordinates":[-0.1657,51.5276]},"properties":{"NUTS_ID":"UKI3","LEVL_CODE":2,"CNTR_CODE":"UK","NAME_LATN":"Inner London — West","NUTS_NAME":"Inner London — West","MOUNT_TYPE":0,"URBN_TYPE":0,"COAST_TYPE":0,"FID":"UKI3"},"id":"UKI3"},{"type":"Feature","geometry":{"type":"Point","coordinates":[-0.1042,51.5701]},"properties":{"NUTS_ID":"UKI4","LEVL_CODE":2,"CNTR_CODE":"UK","NAME_LATN":"Inner London — East","NUTS_NAME":"Inner London — East","MOUNT_TYPE":0,"URBN_TYPE":0,"COAST_TYPE":0,"FID":"UKI4"},"id":"UKI4"},{"type":"Feature","geometry":{"type":"Point","coordinates":[0.1893,51.5615]},"properties":{"NUTS_ID":"UKI5","LEVL_CODE":2,"CNTR_CODE":"UK","NAME_LATN":"Outer London — East and North East","NUTS_NAME":"Outer London — East and North East","MOUNT_TYPE":0,"URBN_TYPE":0,"COAST_TYPE":0,"FID":"UKI5"},"id":"UKI5"},{"type":"Feature","geometry":{"type":"Point","coordinates":[-0.0813,51.3773]},"properties":{"NUTS_ID":"UKI6","LEVL_CODE":2,"CNTR_CODE":"UK","NAME_LATN":"Outer London — South","NUTS_NAME":"Outer London — South","MOUNT_TYPE":0,"URBN_TYPE":0,"COAST_TYPE":0,"FID":"UKI6"},"id":"UKI6"},{"type":"Feature","geometry":{"type":"Point","coordinates":[-0.3338,51.5394]},"properties":{"NUTS_ID":"UKI7","LEVL_CODE":2,"CNTR_CODE":"UK","NAME_LATN":"Outer London — West and North West","NUTS_NAME":"Outer London — West and North West","MOUNT_TYPE":0,"URBN_TYPE":0,"COAST_TYPE":0,"FID":"UKI7"},"id":"UKI7"},{"type":"Feature","geometry":{"type":"Point","coordinates":[-1.0968,51.7136]},"properties":{"NUTS_ID":"UKJ1","LEVL_CODE":2,"CNTR_CODE":"UK","NAME_LATN":"Berkshire, Buckinghamshire and Oxfordshire","NUTS_NAME":"Berkshire, Buckinghamshire and Oxfordshire","MOUNT_TYPE":0,"URBN_TYPE":0,"COAST_TYPE":0,"FID":"UKJ1"},"id":"UKJ1"},{"type":"Feature","geometry":{"type":"Point","coordinates":[-0.2235,51.0593]},"properties":{"NUTS_ID":"UKJ2","LEVL_CODE":2,"CNTR_CODE":"UK","NAME_LATN":"Surrey, East and West Sussex","NUTS_NAME":"Surrey, East and West Sussex","MOUNT_TYPE":0,"URBN_TYPE":0,"COAST_TYPE":0,"FID":"UKJ2"},"id":"UKJ2"},{"type":"Feature","geometry":{"type":"Point","coordinates":[-1.2729,51.0785]},"properties":{"NUTS_ID":"UKJ3","LEVL_CODE":2,"CNTR_CODE":"UK","NAME_LATN":"Hampshire and Isle of Wight","NUTS_NAME":"Hampshire and Isle of Wight","MOUNT_TYPE":0,"URBN_TYPE":0,"COAST_TYPE":0,"FID":"UKJ3"},"id":"UKJ3"},{"type":"Feature","geometry":{"type":"Point","coordinates":[0.6693,51.2181]},"properties":{"NUTS_ID":"UKJ4","LEVL_CODE":2,"CNTR_CODE":"UK","NAME_LATN":"Kent","NUTS_NAME":"Kent","MOUNT_TYPE":0,"URBN_TYPE":0,"COAST_TYPE":0,"FID":"UKJ4"},"id":"UKJ4"},{"type":"Feature","geometry":{"type":"Point","coordinates":[-2.1142,51.5451]},"properties":{"NUTS_ID":"UKK1","LEVL_CODE":2,"CNTR_CODE":"UK","NAME_LATN":"Gloucestershire, Wiltshire and Bristol/Bath area","NUTS_NAME":"Gloucestershire, Wiltshire and Bristol/Bath area","MOUNT_TYPE":0,"URBN_TYPE":0,"COAST_TYPE":0,"FID":"UKK1"},"id":"UKK1"},{"type":"Feature","geometry":{"type":"Point","coordinates":[-2.6741,50.9956]},"properties":{"NUTS_ID":"UKK2","LEVL_CODE":2,"CNTR_CODE":"UK","NAME_LATN":"Dorset and Somerset","NUTS_NAME":"Dorset and Somerset","MOUNT_TYPE":0,"URBN_TYPE":0,"COAST_TYPE":0,"FID":"UKK2"},"id":"UKK2"},{"type":"Feature","geometry":{"type":"Point","coordinates":[-4.7762,50.4401]},"properties":{"NUTS_ID":"UKK3","LEVL_CODE":2,"CNTR_CODE":"UK","NAME_LATN":"Cornwall and Isles of Scilly","NUTS_NAME":"Cornwall and Isles of Scilly","MOUNT_TYPE":0,"URBN_TYPE":0,"COAST_TYPE":0,"FID":"UKK3"},"id":"UKK3"},{"type":"Feature","geometry":{"type":"Point","coordinates":[-3.8006,50.7449]},"properties":{"NUTS_ID":"UKK4","LEVL_CODE":2,"CNTR_CODE":"UK","NAME_LATN":"Devon","NUTS_NAME":"Devon","MOUNT_TYPE":0,"URBN_TYPE":0,"COAST_TYPE":0,"FID":"UKK4"},"id":"UKK4"},{"type":"Feature","geometry":{"type":"Point","coordinates":[-4.0889,52.0585]},"properties":{"NUTS_ID":"UKL1","LEVL_CODE":2,"CNTR_CODE":"UK","NAME_LATN":"West Wales and The Valleys","NUTS_NAME":"West Wales and The Valleys","MOUNT_TYPE":0,"URBN_TYPE":0,"COAST_TYPE":0,"FID":"UKL1"},"id":"UKL1"},{"type":"Feature","geometry":{"type":"Point","coordinates":[-3.3049,52.2896]},"properties":{"NUTS_ID":"UKL2","LEVL_CODE":2,"CNTR_CODE":"UK","NAME_LATN":"East Wales","NUTS_NAME":"East Wales","MOUNT_TYPE":0,"URBN_TYPE":0,"COAST_TYPE":0,"FID":"UKL2"},"id":"UKL2"},{"type":"Feature","geometry":{"type":"Point","coordinates":[-2.6876,57.2021]},"properties":{"NUTS_ID":"UKM5","LEVL_CODE":2,"CNTR_CODE":"UK","NAME_LATN":"North Eastern Scotland","NUTS_NAME":"North Eastern Scotland","MOUNT_TYPE":0,"URBN_TYPE":0,"COAST_TYPE":0,"FID":"UKM5"},"id":"UKM5"},{"type":"Feature","geometry":{"type":"Point","coordinates":[-4.7091,57.2257]},"properties":{"NUTS_ID":"UKM6","LEVL_CODE":2,"CNTR_CODE":"UK","NAME_LATN":"Highlands and Islands","NUTS_NAME":"Highlands and Islands","MOUNT_TYPE":0,"URBN_TYPE":0,"COAST_TYPE":0,"FID":"UKM6"},"id":"UKM6"},{"type":"Feature","geometry":{"type":"Point","coordinates":[-4.181,56.4433]},"properties":{"NUTS_ID":"UKM7","LEVL_CODE":2,"CNTR_CODE":"UK","NAME_LATN":"Eastern Scotland","NUTS_NAME":"Eastern Scotland","MOUNT_TYPE":0,"URBN_TYPE":0,"COAST_TYPE":0,"FID":"UKM7"},"id":"UKM7"},{"type":"Feature","geometry":{"type":"Point","coordinates":[-4.6016,55.8578]},"properties":{"NUTS_ID":"UKM8","LEVL_CODE":2,"CNTR_CODE":"UK","NAME_LATN":"West Central Scotland","NUTS_NAME":"West Central Scotland","MOUNT_TYPE":0,"URBN_TYPE":0,"COAST_TYPE":0,"FID":"UKM8"},"id":"UKM8"},{"type":"Feature","geometry":{"type":"Point","coordinates":[-3.6962,55.3604]},"properties":{"NUTS_ID":"UKM9","LEVL_CODE":2,"CNTR_CODE":"UK","NAME_LATN":"Southern Scotland","NUTS_NAME":"Southern Scotland","MOUNT_TYPE":0,"URBN_TYPE":0,"COAST_TYPE":0,"FID":"UKM9"},"id":"UKM9"},{"type":"Feature","geometry":{"type":"Point","coordinates":[-6.6253,54.6306]},"properties":{"NUTS_ID":"UKN0","LEVL_CODE":2,"CNTR_CODE":"UK","NAME_LATN":"Northern Ireland","NUTS_NAME":"Northern Ireland","MOUNT_TYPE":0,"URBN_TYPE":0,"COAST_TYPE":0,"FID":"UKN0"},"id":"UKN0"},{"type":"Feature","geometry":{"type":"Point","coordinates":[20.4035,42.0651]},"properties":{"NUTS_ID":"AL013","LEVL_CODE":3,"CNTR_CODE":"AL","NAME_LATN":"Kukës","NUTS_NAME":"Kukës","MOUNT_TYPE":4,"URBN_TYPE":3,"COAST_TYPE":3,"FID":"AL013"},"id":"AL013"},{"type":"Feature","geometry":{"type":"Point","coordinates":[19.7021,42.163]},"properties":{"NUTS_ID":"AL015","LEVL_CODE":3,"CNTR_CODE":"AL","NAME_LATN":"Shkodër","NUTS_NAME":"Shkodër","MOUNT_TYPE":4,"URBN_TYPE":2,"COAST_TYPE":1,"FID":"AL015"},"id":"AL015"},{"type":"Feature","geometry":{"type":"Point","coordinates":[19.8478,41.7838]},"properties":{"NUTS_ID":"AL014","LEVL_CODE":3,"CNTR_CODE":"AL","NAME_LATN":"Lezhë","NUTS_NAME":"Lezhë","MOUNT_TYPE":4,"URBN_TYPE":3,"COAST_TYPE":1,"FID":"AL014"},"id":"AL014"},{"type":"Feature","geometry":{"type":"Point","coordinates":[20.2561,41.6039]},"properties":{"NUTS_ID":"AL011","LEVL_CODE":3,"CNTR_CODE":"AL","NAME_LATN":"Dibër","NUTS_NAME":"Dibër","MOUNT_TYPE":4,"URBN_TYPE":3,"COAST_TYPE":3,"FID":"AL011"},"id":"AL011"},{"type":"Feature","geometry":{"type":"Point","coordinates":[19.7131,41.4939]},"properties":{"NUTS_ID":"AL012","LEVL_CODE":3,"CNTR_CODE":"AL","NAME_LATN":"Durrës","NUTS_NAME":"Durrës","MOUNT_TYPE":4,"URBN_TYPE":2,"COAST_TYPE":1,"FID":"AL012"},"id":"AL012"},{"type":"Feature","geometry":{"type":"Point","coordinates":[20.1979,41.0678]},"properties":{"NUTS_ID":"AL021","LEVL_CODE":3,"CNTR_CODE":"AL","NAME_LATN":"Elbasan","NUTS_NAME":"Elbasan","MOUNT_TYPE":4,"URBN_TYPE":3,"COAST_TYPE":2,"FID":"AL021"},"id":"AL021"},{"type":"Feature","geometry":{"type":"Point","coordinates":[19.7988,41.2646]},"properties":{"NUTS_ID":"AL022","LEVL_CODE":3,"CNTR_CODE":"AL","NAME_LATN":"Tiranë","NUTS_NAME":"Tiranë","MOUNT_TYPE":4,"URBN_TYPE":1,"COAST_TYPE":1,"FID":"AL022"},"id":"AL022"},{"type":"Feature","geometry":{"type":"Point","coordinates":[20.6724,40.6225]},"properties":{"NUTS_ID":"AL034","LEVL_CODE":3,"CNTR_CODE":"AL","NAME_LATN":"Korcë","NUTS_NAME":"Korcë","MOUNT_TYPE":4,"URBN_TYPE":3,"COAST_TYPE":3,"FID":"AL034"},"id":"AL034"},{"type":"Feature","geometry":{"type":"Point","coordinates":[20.1211,40.6243]},"properties":{"NUTS_ID":"AL031","LEVL_CODE":3,"CNTR_CODE":"AL","NAME_LATN":"Berat","NUTS_NAME":"Berat","MOUNT_TYPE":4,"URBN_TYPE":3,"COAST_TYPE":2,"FID":"AL031"},"id":"AL031"},{"type":"Feature","geometry":{"type":"Point","coordinates":[19.6189,40.7642]},"properties":{"NUTS_ID":"AL032","LEVL_CODE":3,"CNTR_CODE":"AL","NAME_LATN":"Fier","NUTS_NAME":"Fier","MOUNT_TYPE":4,"URBN_TYPE":3,"COAST_TYPE":1,"FID":"AL032"},"id":"AL032"},{"type":"Feature","geometry":{"type":"Point","coordinates":[19.8062,40.1597]},"properties":{"NUTS_ID":"AL035","LEVL_CODE":3,"CNTR_CODE":"AL","NAME_LATN":"Vlorë","NUTS_NAME":"Vlorë","MOUNT_TYPE":4,"URBN_TYPE":3,"COAST_TYPE":1,"FID":"AL035"},"id":"AL035"},{"type":"Feature","geometry":{"type":"Point","coordinates":[20.1935,40.2]},"properties":{"NUTS_ID":"AL033","LEVL_CODE":3,"CNTR_CODE":"AL","NAME_LATN":"Gjirokastër","NUTS_NAME":"Gjirokastër","MOUNT_TYPE":4,"URBN_TYPE":2,"COAST_TYPE":2,"FID":"AL033"},"id":"AL033"},{"type":"Feature","geometry":{"type":"Point","coordinates":[16.4448,47.5001]},"properties":{"NUTS_ID":"AT111","LEVL_CODE":3,"CNTR_CODE":"AT","NAME_LATN":"Mittelburgenland","NUTS_NAME":"Mittelburgenland","MOUNT_TYPE":4,"URBN_TYPE":3,"COAST_TYPE":3,"FID":"AT111"},"id":"AT111"},{"type":"Feature","geometry":{"type":"Point","coordinates":[16.7761,47.8602]},"properties":{"NUTS_ID":"AT112","LEVL_CODE":3,"CNTR_CODE":"AT","NAME_LATN":"Nordburgenland","NUTS_NAME":"Nordburgenland","MOUNT_TYPE":4,"URBN_TYPE":3,"COAST_TYPE":3,"FID":"AT112"},"id":"AT112"},{"type":"Feature","geometry":{"type":"Point","coordinates":[16.259,47.1655]},"properties":{"NUTS_ID":"AT113","LEVL_CODE":3,"CNTR_CODE":"AT","NAME_LATN":"Südburgenland","NUTS_NAME":"Südburgenland","MOUNT_TYPE":4,"URBN_TYPE":3,"COAST_TYPE":3,"FID":"AT113"},"id":"AT113"},{"type":"Feature","geometry":{"type":"Point","coordinates":[15.0028,48.0522]},"properties":{"NUTS_ID":"AT121","LEVL_CODE":3,"CNTR_CODE":"AT","NAME_LATN":"Mostviertel-Eisenwurzen","NUTS_NAME":"Mostviertel-Eisenwurzen","MOUNT_TYPE":2,"URBN_TYPE":3,"COAST_TYPE":3,"FID":"AT121"},"id":"AT121"},{"type":"Feature","geometry":{"type":"Point","coordinates":[15.9126,47.7944]},"properties":{"NUTS_ID":"AT122","LEVL_CODE":3,"CNTR_CODE":"AT","NAME_LATN":"Niederösterreich-Süd","NUTS_NAME":"Niederösterreich-Süd","MOUNT_TYPE":3,"URBN_TYPE":2,"COAST_TYPE":3,"FID":"AT122"},"id":"AT122"},{"type":"Feature","geometry":{"type":"Point","coordinates":[15.6659,48.2154]},"properties":{"NUTS_ID":"AT123","LEVL_CODE":3,"CNTR_CODE":"AT","NAME_LATN":"Sankt Pölten","NUTS_NAME":"Sankt Pölten","MOUNT_TYPE":2,"URBN_TYPE":3,"COAST_TYPE":3,"FID":"AT123"},"id":"AT123"},{"type":"Feature","geometry":{"type":"Point","coordinates":[15.3195,48.6361]},"properties":{"NUTS_ID":"AT124","LEVL_CODE":3,"CNTR_CODE":"AT","NAME_LATN":"Waldviertel","NUTS_NAME":"Waldviertel","MOUNT_TYPE":4,"URBN_TYPE":3,"COAST_TYPE":3,"FID":"AT124"},"id":"AT124"},{"type":"Feature","geometry":{"type":"Point","coordinates":[16.0527,48.6264]},"properties":{"NUTS_ID":"AT125","LEVL_CODE":3,"CNTR_CODE":"AT","NAME_LATN":"Weinviertel","NUTS_NAME":"Weinviertel","MOUNT_TYPE":4,"URBN_TYPE":3,"COAST_TYPE":3,"FID":"AT125"},"id":"AT125"},{"type":"Feature","geometry":{"type":"Point","coordinates":[16.6651,48.2982]},"properties":{"NUTS_ID":"AT126","LEVL_CODE":3,"CNTR_CODE":"AT","NAME_LATN":"Wiener Umland/Nordteil","NUTS_NAME":"Wiener Umland/Nordteil","MOUNT_TYPE":4,"URBN_TYPE":1,"COAST_TYPE":3,"FID":"AT126"},"id":"AT126"},{"type":"Feature","geometry":{"type":"Point","coordinates":[16.4916,48.0397]},"properties":{"NUTS_ID":"AT127","LEVL_CODE":3,"CNTR_CODE":"AT","NAME_LATN":"Wiener Umland/Südteil","NUTS_NAME":"Wiener Umland/Südteil","MOUNT_TYPE":4,"URBN_TYPE":2,"COAST_TYPE":3,"FID":"AT127"},"id":"AT127"},{"type":"Feature","geometry":{"type":"Point","coordinates":[16.3932,48.2028]},"properties":{"NUTS_ID":"AT130","LEVL_CODE":3,"CNTR_CODE":"AT","NAME_LATN":"Wien","NUTS_NAME":"Wien","MOUNT_TYPE":4,"URBN_TYPE":1,"COAST_TYPE":3,"FID":"AT130"},"id":"AT130"},{"type":"Feature","geometry":{"type":"Point","coordinates":[14.2323,46.5808]},"properties":{"NUTS_ID":"AT211","LEVL_CODE":3,"CNTR_CODE":"AT","NAME_LATN":"Klagenfurt-Villach","NUTS_NAME":"Klagenfurt-Villach","MOUNT_TYPE":3,"URBN_TYPE":2,"COAST_TYPE":3,"FID":"AT211"},"id":"AT211"},{"type":"Feature","geometry":{"type":"Point","coordinates":[13.3207,46.8369]},"properties":{"NUTS_ID":"AT212","LEVL_CODE":3,"CNTR_CODE":"AT","NAME_LATN":"Oberkärnten","NUTS_NAME":"Oberkärnten","MOUNT_TYPE":3,"URBN_TYPE":3,"COAST_TYPE":3,"FID":"AT212"},"id":"AT212"},{"type":"Feature","geometry":{"type":"Point","coordinates":[14.7855,46.7785]},"properties":{"NUTS_ID":"AT213","LEVL_CODE":3,"CNTR_CODE":"AT","NAME_LATN":"Unterkärnten","NUTS_NAME":"Unterkärnten","MOUNT_TYPE":3,"URBN_TYPE":3,"COAST_TYPE":3,"FID":"AT213"},"id":"AT213"},{"type":"Feature","geometry":{"type":"Point","coordinates":[15.362,47.1285]},"properties":{"NUTS_ID":"AT221","LEVL_CODE":3,"CNTR_CODE":"AT","NAME_LATN":"Graz","NUTS_NAME":"Graz","MOUNT_TYPE":3,"URBN_TYPE":2,"COAST_TYPE":3,"FID":"AT221"},"id":"AT221"},{"type":"Feature","geometry":{"type":"Point","coordinates":[13.9612,47.4744]},"properties":{"NUTS_ID":"AT222","LEVL_CODE":3,"CNTR_CODE":"AT","NAME_LATN":"Liezen","NUTS_NAME":"Liezen","MOUNT_TYPE":3,"URBN_TYPE":3,"COAST_TYPE":3,"FID":"AT222"},"id":"AT222"},{"type":"Feature","geometry":{"type":"Point","coordinates":[15.2058,47.5082]},"properties":{"NUTS_ID":"AT223","LEVL_CODE":3,"CNTR_CODE":"AT","NAME_LATN":"Östliche Obersteiermark","NUTS_NAME":"Östliche Obersteiermark","MOUNT_TYPE":3,"URBN_TYPE":2,"COAST_TYPE":3,"FID":"AT223"},"id":"AT223"},{"type":"Feature","geometry":{"type":"Point","coordinates":[15.8146,47.1731]},"properties":{"NUTS_ID":"AT224","LEVL_CODE":3,"CNTR_CODE":"AT","NAME_LATN":"Oststeiermark","NUTS_NAME":"Oststeiermark","MOUNT_TYPE":2,"URBN_TYPE":3,"COAST_TYPE":3,"FID":"AT224"},"id":"AT224"},{"type":"Feature","geometry":{"type":"Point","coordinates":[15.2485,46.873]},"properties":{"NUTS_ID":"AT225","LEVL_CODE":3,"CNTR_CODE":"AT","NAME_LATN":"West- und Südsteiermark","NUTS_NAME":"West- und Südsteiermark","MOUNT_TYPE":3,"URBN_TYPE":3,"COAST_TYPE":3,"FID":"AT225"},"id":"AT225"},{"type":"Feature","geometry":{"type":"Point","coordinates":[14.4333,47.1806]},"properties":{"NUTS_ID":"AT226","LEVL_CODE":3,"CNTR_CODE":"AT","NAME_LATN":"Westliche Obersteiermark","NUTS_NAME":"Westliche Obersteiermark","MOUNT_TYPE":3,"URBN_TYPE":3,"COAST_TYPE":3,"FID":"AT226"},"id":"AT226"},{"type":"Feature","geometry":{"type":"Point","coordinates":[13.5892,48.3447]},"properties":{"NUTS_ID":"AT311","LEVL_CODE":3,"CNTR_CODE":"AT","NAME_LATN":"Innviertel","NUTS_NAME":"Innviertel","MOUNT_TYPE":4,"URBN_TYPE":3,"COAST_TYPE":3,"FID":"AT311"},"id":"AT311"},{"type":"Feature","geometry":{"type":"Point","coordinates":[14.1394,48.2306]},"properties":{"NUTS_ID":"AT312","LEVL_CODE":3,"CNTR_CODE":"AT","NAME_LATN":"Linz-Wels","NUTS_NAME":"Linz-Wels","MOUNT_TYPE":4,"URBN_TYPE":2,"COAST_TYPE":3,"FID":"AT312"},"id":"AT312"},{"type":"Feature","geometry":{"type":"Point","coordinates":[14.652,48.3995]},"properties":{"NUTS_ID":"AT313","LEVL_CODE":3,"CNTR_CODE":"AT","NAME_LATN":"Mühlviertel","NUTS_NAME":"Mühlviertel","MOUNT_TYPE":3,"URBN_TYPE":3,"COAST_TYPE":3,"FID":"AT313"},"id":"AT313"},{"type":"Feature","geometry":{"type":"Point","coordinates":[14.3256,47.8533]},"properties":{"NUTS_ID":"AT314","LEVL_CODE":3,"CNTR_CODE":"AT","NAME_LATN":"Steyr-Kirchdorf","NUTS_NAME":"Steyr-Kirchdorf","MOUNT_TYPE":3,"URBN_TYPE":3,"COAST_TYPE":3,"FID":"AT314"},"id":"AT314"},{"type":"Feature","geometry":{"type":"Point","coordinates":[13.6794,47.8468]},"properties":{"NUTS_ID":"AT315","LEVL_CODE":3,"CNTR_CODE":"AT","NAME_LATN":"Traunviertel","NUTS_NAME":"Traunviertel","MOUNT_TYPE":3,"URBN_TYPE":3,"COAST_TYPE":3,"FID":"AT315"},"id":"AT315"},{"type":"Feature","geometry":{"type":"Point","coordinates":[13.6571,47.1441]},"properties":{"NUTS_ID":"AT321","LEVL_CODE":3,"CNTR_CODE":"AT","NAME_LATN":"Lungau","NUTS_NAME":"Lungau","MOUNT_TYPE":3,"URBN_TYPE":3,"COAST_TYPE":3,"FID":"AT321"},"id":"AT321"},{"type":"Feature","geometry":{"type":"Point","coordinates":[12.9093,47.3085]},"properties":{"NUTS_ID":"AT322","LEVL_CODE":3,"CNTR_CODE":"AT","NAME_LATN":"Pinzgau-Pongau","NUTS_NAME":"Pinzgau-Pongau","MOUNT_TYPE":3,"URBN_TYPE":3,"COAST_TYPE":3,"FID":"AT322"},"id":"AT322"},{"type":"Feature","geometry":{"type":"Point","coordinates":[13.2114,47.7486]},"properties":{"NUTS_ID":"AT323","LEVL_CODE":3,"CNTR_CODE":"AT","NAME_LATN":"Salzburg und Umgebung","NUTS_NAME":"Salzburg und Umgebung","MOUNT_TYPE":3,"URBN_TYPE":2,"COAST_TYPE":3,"FID":"AT323"},"id":"AT323"},{"type":"Feature","geometry":{"type":"Point","coordinates":[10.5848,47.4163]},"properties":{"NUTS_ID":"AT331","LEVL_CODE":3,"CNTR_CODE":"AT","NAME_LATN":"Außerfern","NUTS_NAME":"Außerfern","MOUNT_TYPE":3,"URBN_TYPE":3,"COAST_TYPE":3,"FID":"AT331"},"id":"AT331"},{"type":"Feature","geometry":{"type":"Point","coordinates":[11.346,47.2034]},"properties":{"NUTS_ID":"AT332","LEVL_CODE":3,"CNTR_CODE":"AT","NAME_LATN":"Innsbruck","NUTS_NAME":"Innsbruck","MOUNT_TYPE":3,"URBN_TYPE":1,"COAST_TYPE":3,"FID":"AT332"},"id":"AT332"},{"type":"Feature","geometry":{"type":"Point","coordinates":[12.5203,46.8935]},"properties":{"NUTS_ID":"AT333","LEVL_CODE":3,"CNTR_CODE":"AT","NAME_LATN":"Osttirol","NUTS_NAME":"Osttirol","MOUNT_TYPE":3,"URBN_TYPE":3,"COAST_TYPE":3,"FID":"AT333"},"id":"AT333"},{"type":"Feature","geometry":{"type":"Point","coordinates":[10.7048,47.0679]},"properties":{"NUTS_ID":"AT334","LEVL_CODE":3,"CNTR_CODE":"AT","NAME_LATN":"Tiroler Oberland","NUTS_NAME":"Tiroler Oberland","MOUNT_TYPE":3,"URBN_TYPE":3,"COAST_TYPE":3,"FID":"AT334"},"id":"AT334"},{"type":"Feature","geometry":{"type":"Point","coordinates":[12.0047,47.3871]},"properties":{"NUTS_ID":"AT335","LEVL_CODE":3,"CNTR_CODE":"AT","NAME_LATN":"Tiroler Unterland","NUTS_NAME":"Tiroler Unterland","MOUNT_TYPE":3,"URBN_TYPE":3,"COAST_TYPE":3,"FID":"AT335"},"id":"AT335"},{"type":"Feature","geometry":{"type":"Point","coordinates":[9.9563,47.162]},"properties":{"NUTS_ID":"AT341","LEVL_CODE":3,"CNTR_CODE":"AT","NAME_LATN":"Bludenz-Bregenzer Wald","NUTS_NAME":"Bludenz-Bregenzer Wald","MOUNT_TYPE":3,"URBN_TYPE":3,"COAST_TYPE":3,"FID":"AT341"},"id":"AT341"},{"type":"Feature","geometry":{"type":"Point","coordinates":[9.7221,47.3907]},"properties":{"NUTS_ID":"AT342","LEVL_CODE":3,"CNTR_CODE":"AT","NAME_LATN":"Rheintal-Bodenseegebiet","NUTS_NAME":"Rheintal-Bodenseegebiet","MOUNT_TYPE":3,"URBN_TYPE":1,"COAST_TYPE":3,"FID":"AT342"},"id":"AT342"},{"type":"Feature","geometry":{"type":"Point","coordinates":[4.3569,50.8401]},"properties":{"NUTS_ID":"BE100","LEVL_CODE":3,"CNTR_CODE":"BE","NAME_LATN":"Arr. de Bruxelles-Capitale/Arr. Brussel-Hoofdstad","NUTS_NAME":"Arr. de Bruxelles-Capitale/Arr. Brussel-Hoofdstad","MOUNT_TYPE":4,"URBN_TYPE":1,"COAST_TYPE":3,"FID":"BE100"},"id":"BE100"},{"type":"Feature","geometry":{"type":"Point","coordinates":[4.4941,51.2778]},"properties":{"NUTS_ID":"BE211","LEVL_CODE":3,"CNTR_CODE":"BE","NAME_LATN":"Arr. Antwerpen","NUTS_NAME":"Arr. Antwerpen","MOUNT_TYPE":4,"URBN_TYPE":1,"COAST_TYPE":1,"FID":"BE211"},"id":"BE211"},{"type":"Feature","geometry":{"type":"Point","coordinates":[4.6359,51.0866]},"properties":{"NUTS_ID":"BE212","LEVL_CODE":3,"CNTR_CODE":"BE","NAME_LATN":"Arr. Mechelen","NUTS_NAME":"Arr. Mechelen","MOUNT_TYPE":4,"URBN_TYPE":1,"COAST_TYPE":2,"FID":"BE212"},"id":"BE212"},{"type":"Feature","geometry":{"type":"Point","coordinates":[4.9502,51.2451]},"properties":{"NUTS_ID":"BE213","LEVL_CODE":3,"CNTR_CODE":"BE","NAME_LATN":"Arr. Turnhout","NUTS_NAME":"Arr. Turnhout","MOUNT_TYPE":4,"URBN_TYPE":2,"COAST_TYPE":3,"FID":"BE213"},"id":"BE213"},{"type":"Feature","geometry":{"type":"Point","coordinates":[5.2723,50.955]},"properties":{"NUTS_ID":"BE224","LEVL_CODE":3,"CNTR_CODE":"BE","NAME_LATN":"Arr. Hasselt","NUTS_NAME":"Arr. Hasselt","MOUNT_TYPE":4,"URBN_TYPE":1,"COAST_TYPE":3,"FID":"BE224"},"id":"BE224"},{"type":"Feature","geometry":{"type":"Point","coordinates":[5.5062,51.1363]},"properties":{"NUTS_ID":"BE225","LEVL_CODE":3,"CNTR_CODE":"BE","NAME_LATN":"Arr. Maaseik","NUTS_NAME":"Arr. Maaseik","MOUNT_TYPE":4,"URBN_TYPE":2,"COAST_TYPE":3,"FID":"BE225"},"id":"BE225"},{"type":"Feature","geometry":{"type":"Point","coordinates":[5.5278,50.8431]},"properties":{"NUTS_ID":"BE223","LEVL_CODE":3,"CNTR_CODE":"BE","NAME_LATN":"Arr. Tongeren","NUTS_NAME":"Arr. Tongeren","MOUNT_TYPE":4,"URBN_TYPE":2,"COAST_TYPE":3,"FID":"BE223"},"id":"BE223"},{"type":"Feature","geometry":{"type":"Point","coordinates":[3.9358,50.8772]},"properties":{"NUTS_ID":"BE231","LEVL_CODE":3,"CNTR_CODE":"BE","NAME_LATN":"Arr. Aalst","NUTS_NAME":"Arr. Aalst","MOUNT_TYPE":4,"URBN_TYPE":1,"COAST_TYPE":2,"FID":"BE231"},"id":"BE231"},{"type":"Feature","geometry":{"type":"Point","coordinates":[4.0444,51.0409]},"properties":{"NUTS_ID":"BE232","LEVL_CODE":3,"CNTR_CODE":"BE","NAME_LATN":"Arr. Dendermonde","NUTS_NAME":"Arr. Dendermonde","MOUNT_TYPE":4,"URBN_TYPE":1,"COAST_TYPE":2,"FID":"BE232"},"id":"BE232"},{"type":"Feature","geometry":{"type":"Point","coordinates":[3.5567,51.211]},"properties":{"NUTS_ID":"BE233","LEVL_CODE":3,"CNTR_CODE":"BE","NAME_LATN":"Arr. Eeklo","NUTS_NAME":"Arr. Eeklo","MOUNT_TYPE":4,"URBN_TYPE":2,"COAST_TYPE":2,"FID":"BE233"},"id":"BE233"},{"type":"Feature","geometry":{"type":"Point","coordinates":[3.6607,51.0631]},"properties":{"NUTS_ID":"BE234","LEVL_CODE":3,"CNTR_CODE":"BE","NAME_LATN":"Arr. Gent","NUTS_NAME":"Arr. Gent","MOUNT_TYPE":4,"URBN_TYPE":2,"COAST_TYPE":2,"FID":"BE234"},"id":"BE234"},{"type":"Feature","geometry":{"type":"Point","coordinates":[3.6328,50.8264]},"properties":{"NUTS_ID":"BE235","LEVL_CODE":3,"CNTR_CODE":"BE","NAME_LATN":"Arr. Oudenaarde","NUTS_NAME":"Arr. Oudenaarde","MOUNT_TYPE":4,"URBN_TYPE":2,"COAST_TYPE":3,"FID":"BE235"},"id":"BE235"},{"type":"Feature","geometry":{"type":"Point","coordinates":[4.1423,51.1982]},"properties":{"NUTS_ID":"BE236","LEVL_CODE":3,"CNTR_CODE":"BE","NAME_LATN":"Arr. Sint-Niklaas","NUTS_NAME":"Arr. Sint-Niklaas","MOUNT_TYPE":4,"URBN_TYPE":1,"COAST_TYPE":1,"FID":"BE236"},"id":"BE236"},{"type":"Feature","geometry":{"type":"Point","coordinates":[4.2611,50.7655]},"properties":{"NUTS_ID":"BE241","LEVL_CODE":3,"CNTR_CODE":"BE","NAME_LATN":"Arr. Halle-Vilvoorde","NUTS_NAME":"Arr. Halle-Vilvoorde","MOUNT_TYPE":4,"URBN_TYPE":1,"COAST_TYPE":3,"FID":"BE241"},"id":"BE241"},{"type":"Feature","geometry":{"type":"Point","coordinates":[4.8498,50.891]},"properties":{"NUTS_ID":"BE242","LEVL_CODE":3,"CNTR_CODE":"BE","NAME_LATN":"Arr. Leuven","NUTS_NAME":"Arr. Leuven","MOUNT_TYPE":4,"URBN_TYPE":2,"COAST_TYPE":3,"FID":"BE242"},"id":"BE242"},{"type":"Feature","geometry":{"type":"Point","coordinates":[3.2248,51.2013]},"properties":{"NUTS_ID":"BE251","LEVL_CODE":3,"CNTR_CODE":"BE","NAME_LATN":"Arr. Brugge","NUTS_NAME":"Arr. Brugge","MOUNT_TYPE":4,"URBN_TYPE":2,"COAST_TYPE":1,"FID":"BE251"},"id":"BE251"},{"type":"Feature","geometry":{"type":"Point","coordinates":[2.89,51.0184]},"properties":{"NUTS_ID":"BE252","LEVL_CODE":3,"CNTR_CODE":"BE","NAME_LATN":"Arr. Diksmuide","NUTS_NAME":"Arr. Diksmuide","MOUNT_TYPE":4,"URBN_TYPE":2,"COAST_TYPE":2,"FID":"BE252"},"id":"BE252"},{"type":"Feature","geometry":{"type":"Point","coordinates":[2.8697,50.8525]},"properties":{"NUTS_ID":"BE253","LEVL_CODE":3,"CNTR_CODE":"BE","NAME_LATN":"Arr. Ieper","NUTS_NAME":"Arr. Ieper","MOUNT_TYPE":4,"URBN_TYPE":2,"COAST_TYPE":2,"FID":"BE253"},"id":"BE253"},{"type":"Feature","geometry":{"type":"Point","coordinates":[3.3066,50.8223]},"properties":{"NUTS_ID":"BE254","LEVL_CODE":3,"CNTR_CODE":"BE","NAME_LATN":"Arr. Kortrijk","NUTS_NAME":"Arr. Kortrijk","MOUNT_TYPE":4,"URBN_TYPE":1,"COAST_TYPE":3,"FID":"BE254"},"id":"BE254"},{"type":"Feature","geometry":{"type":"Point","coordinates":[2.9506,51.1788]},"properties":{"NUTS_ID":"BE255","LEVL_CODE":3,"CNTR_CODE":"BE","NAME_LATN":"Arr. Oostende","NUTS_NAME":"Arr. Oostende","MOUNT_TYPE":4,"URBN_TYPE":2,"COAST_TYPE":1,"FID":"BE255"},"id":"BE255"},{"type":"Feature","geometry":{"type":"Point","coordinates":[3.1187,50.9405]},"properties":{"NUTS_ID":"BE256","LEVL_CODE":3,"CNTR_CODE":"BE","NAME_LATN":"Arr. Roeselare","NUTS_NAME":"Arr. Roeselare","MOUNT_TYPE":4,"URBN_TYPE":2,"COAST_TYPE":2,"FID":"BE256"},"id":"BE256"},{"type":"Feature","geometry":{"type":"Point","coordinates":[3.302,50.9991]},"properties":{"NUTS_ID":"BE257","LEVL_CODE":3,"CNTR_CODE":"BE","NAME_LATN":"Arr. Tielt","NUTS_NAME":"Arr. Tielt","MOUNT_TYPE":4,"URBN_TYPE":2,"COAST_TYPE":2,"FID":"BE257"},"id":"BE257"},{"type":"Feature","geometry":{"type":"Point","coordinates":[2.6747,51.052]},"properties":{"NUTS_ID":"BE258","LEVL_CODE":3,"CNTR_CODE":"BE","NAME_LATN":"Arr. Veurne","NUTS_NAME":"Arr. Veurne","MOUNT_TYPE":4,"URBN_TYPE":2,"COAST_TYPE":1,"FID":"BE258"},"id":"BE258"},{"type":"Feature","geometry":{"type":"Point","coordinates":[4.5923,50.6659]},"properties":{"NUTS_ID":"BE310","LEVL_CODE":3,"CNTR_CODE":"BE","NAME_LATN":"Arr. Nivelles","NUTS_NAME":"Arr. Nivelles","MOUNT_TYPE":4,"URBN_TYPE":2,"COAST_TYPE":3,"FID":"BE310"},"id":"BE310"},{"type":"Feature","geometry":{"type":"Point","coordinates":[3.8135,50.6175]},"properties":{"NUTS_ID":"BE32A","LEVL_CODE":3,"CNTR_CODE":"BE","NAME_LATN":"Arr. Ath","NUTS_NAME":"Arr. Ath","MOUNT_TYPE":4,"URBN_TYPE":3,"COAST_TYPE":3,"FID":"BE32A"},"id":"BE32A"},{"type":"Feature","geometry":{"type":"Point","coordinates":[4.4222,50.4588]},"properties":{"NUTS_ID":"BE32B","LEVL_CODE":3,"CNTR_CODE":"BE","NAME_LATN":"Arr. Charleroi","NUTS_NAME":"Arr. Charleroi","MOUNT_TYPE":4,"URBN_TYPE":1,"COAST_TYPE":3,"FID":"BE32B"},"id":"BE32B"},{"type":"Feature","geometry":{"type":"Point","coordinates":[3.8846,50.4503]},"properties":{"NUTS_ID":"BE323","LEVL_CODE":3,"CNTR_CODE":"BE","NAME_LATN":"Arr. Mons","NUTS_NAME":"Arr. Mons","MOUNT_TYPE":4,"URBN_TYPE":1,"COAST_TYPE":3,"FID":"BE323"},"id":"BE323"},{"type":"Feature","geometry":{"type":"Point","coordinates":[4.1408,50.4387]},"properties":{"NUTS_ID":"BE329","LEVL_CODE":3,"CNTR_CODE":"BE","NAME_LATN":"Arr. La Louvière","NUTS_NAME":"Arr. La Louvière","MOUNT_TYPE":4,"URBN_TYPE":1,"COAST_TYPE":3,"FID":"BE329"},"id":"BE329"},{"type":"Feature","geometry":{"type":"Point","coordinates":[4.2514,50.1983]},"properties":{"NUTS_ID":"BE32D","LEVL_CODE":3,"CNTR_CODE":"BE","NAME_LATN":"Arr. Thuin","NUTS_NAME":"Arr. Thuin","MOUNT_TYPE":4,"URBN_TYPE":3,"COAST_TYPE":3,"FID":"BE32D"},"id":"BE32D"},{"type":"Feature","geometry":{"type":"Point","coordinates":[3.4469,50.6318]},"properties":{"NUTS_ID":"BE328","LEVL_CODE":3,"CNTR_CODE":"BE","NAME_LATN":"Arr. Tournai-Mouscron","NUTS_NAME":"Arr. Tournai-Mouscron","MOUNT_TYPE":4,"URBN_TYPE":2,"COAST_TYPE":3,"FID":"BE328"},"id":"BE328"},{"type":"Feature","geometry":{"type":"Point","coordinates":[5.3435,50.4874]},"properties":{"NUTS_ID":"BE331","LEVL_CODE":3,"CNTR_CODE":"BE","NAME_LATN":"Arr. Huy","NUTS_NAME":"Arr. Huy","MOUNT_TYPE":4,"URBN_TYPE":3,"COAST_TYPE":3,"FID":"BE331"},"id":"BE331"},{"type":"Feature","geometry":{"type":"Point","coordinates":[5.6051,50.6197]},"properties":{"NUTS_ID":"BE332","LEVL_CODE":3,"CNTR_CODE":"BE","NAME_LATN":"Arr. Liège","NUTS_NAME":"Arr. Liège","MOUNT_TYPE":4,"URBN_TYPE":1,"COAST_TYPE":3,"FID":"BE332"},"id":"BE332"},{"type":"Feature","geometry":{"type":"Point","coordinates":[5.2075,50.6727]},"properties":{"NUTS_ID":"BE334","LEVL_CODE":3,"CNTR_CODE":"BE","NAME_LATN":"Arr. Waremme","NUTS_NAME":"Arr. Waremme","MOUNT_TYPE":4,"URBN_TYPE":3,"COAST_TYPE":3,"FID":"BE334"},"id":"BE334"},{"type":"Feature","geometry":{"type":"Point","coordinates":[5.912,50.4966]},"properties":{"NUTS_ID":"BE335","LEVL_CODE":3,"CNTR_CODE":"BE","NAME_LATN":"Arr. Verviers — communes francophones","NUTS_NAME":"Arr. Verviers — communes francophones","MOUNT_TYPE":2,"URBN_TYPE":2,"COAST_TYPE":3,"FID":"BE335"},"id":"BE335"},{"type":"Feature","geometry":{"type":"Point","coordinates":[6.1862,50.3331]},"properties":{"NUTS_ID":"BE336","LEVL_CODE":3,"CNTR_CODE":"BE","NAME_LATN":"Bezirk Verviers — Deutschsprachige Gemeinschaft","NUTS_NAME":"Bezirk Verviers — Deutschsprachige Gemeinschaft","MOUNT_TYPE":4,"URBN_TYPE":3,"COAST_TYPE":3,"FID":"BE336"},"id":"BE336"},{"type":"Feature","geometry":{"type":"Point","coordinates":[5.7483,49.6853]},"properties":{"NUTS_ID":"BE341","LEVL_CODE":3,"CNTR_CODE":"BE","NAME_LATN":"Arr. Arlon","NUTS_NAME":"Arr. Arlon","MOUNT_TYPE":4,"URBN_TYPE":3,"COAST_TYPE":3,"FID":"BE341"},"id":"BE341"},{"type":"Feature","geometry":{"type":"Point","coordinates":[5.7523,50.0877]},"properties":{"NUTS_ID":"BE342","LEVL_CODE":3,"CNTR_CODE":"BE","NAME_LATN":"Arr. Bastogne","NUTS_NAME":"Arr. Bastogne","MOUNT_TYPE":4,"URBN_TYPE":3,"COAST_TYPE":3,"FID":"BE342"},"id":"BE342"},{"type":"Feature","geometry":{"type":"Point","coordinates":[5.4892,50.2341]},"properties":{"NUTS_ID":"BE343","LEVL_CODE":3,"CNTR_CODE":"BE","NAME_LATN":"Arr. Marche-en-Famenne","NUTS_NAME":"Arr. Marche-en-Famenne","MOUNT_TYPE":4,"URBN_TYPE":3,"COAST_TYPE":3,"FID":"BE343"},"id":"BE343"},{"type":"Feature","geometry":{"type":"Point","coordinates":[5.3112,49.8942]},"properties":{"NUTS_ID":"BE344","LEVL_CODE":3,"CNTR_CODE":"BE","NAME_LATN":"Arr. Neufchâteau","NUTS_NAME":"Arr. Neufchâteau","MOUNT_TYPE":4,"URBN_TYPE":3,"COAST_TYPE":3,"FID":"BE344"},"id":"BE344"},{"type":"Feature","geometry":{"type":"Point","coordinates":[5.516,49.6521]},"properties":{"NUTS_ID":"BE345","LEVL_CODE":3,"CNTR_CODE":"BE","NAME_LATN":"Arr. Virton","NUTS_NAME":"Arr. Virton","MOUNT_TYPE":4,"URBN_TYPE":3,"COAST_TYPE":3,"FID":"BE345"},"id":"BE345"},{"type":"Feature","geometry":{"type":"Point","coordinates":[5.0465,50.1804]},"properties":{"NUTS_ID":"BE351","LEVL_CODE":3,"CNTR_CODE":"BE","NAME_LATN":"Arr. Dinant","NUTS_NAME":"Arr. Dinant","MOUNT_TYPE":4,"URBN_TYPE":3,"COAST_TYPE":3,"FID":"BE351"},"id":"BE351"},{"type":"Feature","geometry":{"type":"Point","coordinates":[4.8503,50.4665]},"properties":{"NUTS_ID":"BE352","LEVL_CODE":3,"CNTR_CODE":"BE","NAME_LATN":"Arr. Namur","NUTS_NAME":"Arr. Namur","MOUNT_TYPE":4,"URBN_TYPE":2,"COAST_TYPE":3,"FID":"BE352"},"id":"BE352"},{"type":"Feature","geometry":{"type":"Point","coordinates":[4.5623,50.1578]},"properties":{"NUTS_ID":"BE353","LEVL_CODE":3,"CNTR_CODE":"BE","NAME_LATN":"Arr. Philippeville","NUTS_NAME":"Arr. Philippeville","MOUNT_TYPE":4,"URBN_TYPE":3,"COAST_TYPE":3,"FID":"BE353"},"id":"BE353"},{"type":"Feature","geometry":{"type":"Point","coordinates":[22.7031,43.8087]},"properties":{"NUTS_ID":"BG311","LEVL_CODE":3,"CNTR_CODE":"BG","NAME_LATN":"Vidin","NUTS_NAME":"Видин","MOUNT_TYPE":4,"URBN_TYPE":3,"COAST_TYPE":3,"FID":"BG311"},"id":"BG311"},{"type":"Feature","geometry":{"type":"Point","coordinates":[23.1985,43.4924]},"properties":{"NUTS_ID":"BG312","LEVL_CODE":3,"CNTR_CODE":"BG","NAME_LATN":"Montana","NUTS_NAME":"Монтана","MOUNT_TYPE":4,"URBN_TYPE":2,"COAST_TYPE":3,"FID":"BG312"},"id":"BG312"},{"type":"Feature","geometry":{"type":"Point","coordinates":[23.7802,43.4228]},"properties":{"NUTS_ID":"BG313","LEVL_CODE":3,"CNTR_CODE":"BG","NAME_LATN":"Vratsa","NUTS_NAME":"Враца","MOUNT_TYPE":4,"URBN_TYPE":2,"COAST_TYPE":3,"FID":"BG313"},"id":"BG313"},{"type":"Feature","geometry":{"type":"Point","coordinates":[24.6049,43.4768]},"properties":{"NUTS_ID":"BG314","LEVL_CODE":3,"CNTR_CODE":"BG","NAME_LATN":"Pleven","NUTS_NAME":"Плевен","MOUNT_TYPE":4,"URBN_TYPE":2,"COAST_TYPE":3,"FID":"BG314"},"id":"BG314"},{"type":"Feature","geometry":{"type":"Point","coordinates":[24.5493,43.0136]},"properties":{"NUTS_ID":"BG315","LEVL_CODE":3,"CNTR_CODE":"BG","NAME_LATN":"Lovech","NUTS_NAME":"Ловеч","MOUNT_TYPE":3,"URBN_TYPE":2,"COAST_TYPE":3,"FID":"BG315"},"id":"BG315"},{"type":"Feature","geometry":{"type":"Point","coordinates":[25.6302,43.1868]},"properties":{"NUTS_ID":"BG321","LEVL_CODE":3,"CNTR_CODE":"BG","NAME_LATN":"Veliko Tarnovo","NUTS_NAME":"Велико Търново","MOUNT_TYPE":4,"URBN_TYPE":2,"COAST_TYPE":3,"FID":"BG321"},"id":"BG321"},{"type":"Feature","geometry":{"type":"Point","coordinates":[25.2208,42.9354]},"properties":{"NUTS_ID":"BG322","LEVL_CODE":3,"CNTR_CODE":"BG","NAME_LATN":"Gabrovo","NUTS_NAME":"Габрово","MOUNT_TYPE":3,"URBN_TYPE":2,"COAST_TYPE":3,"FID":"BG322"},"id":"BG322"},{"type":"Feature","geometry":{"type":"Point","coordinates":[25.9955,43.6698]},"properties":{"NUTS_ID":"BG323","LEVL_CODE":3,"CNTR_CODE":"BG","NAME_LATN":"Ruse","NUTS_NAME":"Русе","MOUNT_TYPE":4,"URBN_TYPE":2,"COAST_TYPE":3,"FID":"BG323"},"id":"BG323"},{"type":"Feature","geometry":{"type":"Point","coordinates":[26.6046,43.6342]},"properties":{"NUTS_ID":"BG324","LEVL_CODE":3,"CNTR_CODE":"BG","NAME_LATN":"Razgrad","NUTS_NAME":"Разград","MOUNT_TYPE":4,"URBN_TYPE":3,"COAST_TYPE":3,"FID":"BG324"},"id":"BG324"},{"type":"Feature","geometry":{"type":"Point","coordinates":[27.0298,43.9371]},"properties":{"NUTS_ID":"BG325","LEVL_CODE":3,"CNTR_CODE":"BG","NAME_LATN":"Silistra","NUTS_NAME":"Силистра","MOUNT_TYPE":4,"URBN_TYPE":3,"COAST_TYPE":3,"FID":"BG325"},"id":"BG325"},{"type":"Feature","geometry":{"type":"Point","coordinates":[27.5903,43.1761]},"properties":{"NUTS_ID":"BG331","LEVL_CODE":3,"CNTR_CODE":"BG","NAME_LATN":"Varna","NUTS_NAME":"Варна","MOUNT_TYPE":4,"URBN_TYPE":2,"COAST_TYPE":1,"FID":"BG331"},"id":"BG331"},{"type":"Feature","geometry":{"type":"Point","coordinates":[27.9421,43.6481]},"properties":{"NUTS_ID":"BG332","LEVL_CODE":3,"CNTR_CODE":"BG","NAME_LATN":"Dobrich","NUTS_NAME":"Добрич","MOUNT_TYPE":4,"URBN_TYPE":2,"COAST_TYPE":1,"FID":"BG332"},"id":"BG332"},{"type":"Feature","geometry":{"type":"Point","coordinates":[26.9958,43.2954]},"properties":{"NUTS_ID":"BG333","LEVL_CODE":3,"CNTR_CODE":"BG","NAME_LATN":"Shumen","NUTS_NAME":"Шумен","MOUNT_TYPE":4,"URBN_TYPE":2,"COAST_TYPE":3,"FID":"BG333"},"id":"BG333"},{"type":"Feature","geometry":{"type":"Point","coordinates":[26.3486,43.2288]},"properties":{"NUTS_ID":"BG334","LEVL_CODE":3,"CNTR_CODE":"BG","NAME_LATN":"Targovishte","NUTS_NAME":"Търговище","MOUNT_TYPE":4,"URBN_TYPE":3,"COAST_TYPE":3,"FID":"BG334"},"id":"BG334"},{"type":"Feature","geometry":{"type":"Point","coordinates":[27.2974,42.5062]},"properties":{"NUTS_ID":"BG341","LEVL_CODE":3,"CNTR_CODE":"BG","NAME_LATN":"Burgas","NUTS_NAME":"Бургас","MOUNT_TYPE":4,"URBN_TYPE":2,"COAST_TYPE":1,"FID":"BG341"},"id":"BG341"},{"type":"Feature","geometry":{"type":"Point","coordinates":[26.2476,42.6827]},"properties":{"NUTS_ID":"BG342","LEVL_CODE":3,"CNTR_CODE":"BG","NAME_LATN":"Sliven","NUTS_NAME":"Сливен","MOUNT_TYPE":2,"URBN_TYPE":2,"COAST_TYPE":3,"FID":"BG342"},"id":"BG342"},{"type":"Feature","geometry":{"type":"Point","coordinates":[26.6421,42.2708]},"properties":{"NUTS_ID":"BG343","LEVL_CODE":3,"CNTR_CODE":"BG","NAME_LATN":"Yambol","NUTS_NAME":"Ямбол","MOUNT_TYPE":4,"URBN_TYPE":2,"COAST_TYPE":3,"FID":"BG343"},"id":"BG343"},{"type":"Feature","geometry":{"type":"Point","coordinates":[25.5653,42.4441]},"properties":{"NUTS_ID":"BG344","LEVL_CODE":3,"CNTR_CODE":"BG","NAME_LATN":"Stara Zagora","NUTS_NAME":"Стара Загора","MOUNT_TYPE":2,"URBN_TYPE":2,"COAST_TYPE":3,"FID":"BG344"},"id":"BG344"},{"type":"Feature","geometry":{"type":"Point","coordinates":[23.3339,42.6747]},"properties":{"NUTS_ID":"BG411","LEVL_CODE":3,"CNTR_CODE":"BG","NAME_LATN":"Sofia (stolitsa)","NUTS_NAME":"София (столица)","MOUNT_TYPE":3,"URBN_TYPE":1,"COAST_TYPE":3,"FID":"BG411"},"id":"BG411"},{"type":"Feature","geometry":{"type":"Point","coordinates":[23.5847,42.2713]},"properties":{"NUTS_ID":"BG412","LEVL_CODE":3,"CNTR_CODE":"BG","NAME_LATN":"Sofia","NUTS_NAME":"София","MOUNT_TYPE":3,"URBN_TYPE":3,"COAST_TYPE":3,"FID":"BG412"},"id":"BG412"},{"type":"Feature","geometry":{"type":"Point","coordinates":[23.441,41.7249]},"properties":{"NUTS_ID":"BG413","LEVL_CODE":3,"CNTR_CODE":"BG","NAME_LATN":"Blagoevgrad","NUTS_NAME":"Благоевград","MOUNT_TYPE":3,"URBN_TYPE":2,"COAST_TYPE":3,"FID":"BG413"},"id":"BG413"},{"type":"Feature","geometry":{"type":"Point","coordinates":[22.8539,42.6307]},"properties":{"NUTS_ID":"BG414","LEVL_CODE":3,"CNTR_CODE":"BG","NAME_LATN":"Pernik","NUTS_NAME":"Перник","MOUNT_TYPE":3,"URBN_TYPE":2,"COAST_TYPE":3,"FID":"BG414"},"id":"BG414"},{"type":"Feature","geometry":{"type":"Point","coordinates":[22.9279,42.229]},"properties":{"NUTS_ID":"BG415","LEVL_CODE":3,"CNTR_CODE":"BG","NAME_LATN":"Kyustendil","NUTS_NAME":"Кюстендил","MOUNT_TYPE":3,"URBN_TYPE":2,"COAST_TYPE":3,"FID":"BG415"},"id":"BG415"},{"type":"Feature","geometry":{"type":"Point","coordinates":[24.8162,42.271]},"properties":{"NUTS_ID":"BG421","LEVL_CODE":3,"CNTR_CODE":"BG","NAME_LATN":"Plovdiv","NUTS_NAME":"Пловдив","MOUNT_TYPE":2,"URBN_TYPE":2,"COAST_TYPE":3,"FID":"BG421"},"id":"BG421"},{"type":"Feature","geometry":{"type":"Point","coordinates":[25.9061,41.8458]},"properties":{"NUTS_ID":"BG422","LEVL_CODE":3,"CNTR_CODE":"BG","NAME_LATN":"Haskovo","NUTS_NAME":"Хасково","MOUNT_TYPE":4,"URBN_TYPE":2,"COAST_TYPE":3,"FID":"BG422"},"id":"BG422"},{"type":"Feature","geometry":{"type":"Point","coordinates":[24.1462,42.1239]},"properties":{"NUTS_ID":"BG423","LEVL_CODE":3,"CNTR_CODE":"BG","NAME_LATN":"Pazardzhik","NUTS_NAME":"Пазарджик","MOUNT_TYPE":3,"URBN_TYPE":2,"COAST_TYPE":3,"FID":"BG423"},"id":"BG423"},{"type":"Feature","geometry":{"type":"Point","coordinates":[24.6599,41.6299]},"properties":{"NUTS_ID":"BG424","LEVL_CODE":3,"CNTR_CODE":"BG","NAME_LATN":"Smolyan","NUTS_NAME":"Смолян","MOUNT_TYPE":3,"URBN_TYPE":3,"COAST_TYPE":3,"FID":"BG424"},"id":"BG424"},{"type":"Feature","geometry":{"type":"Point","coordinates":[25.4055,41.5186]},"properties":{"NUTS_ID":"BG425","LEVL_CODE":3,"CNTR_CODE":"BG","NAME_LATN":"Kardzhali","NUTS_NAME":"Кърджали","MOUNT_TYPE":3,"URBN_TYPE":3,"COAST_TYPE":3,"FID":"BG425"},"id":"BG425"},{"type":"Feature","geometry":{"type":"Point","coordinates":[6.6207,46.5526]},"properties":{"NUTS_ID":"CH011","LEVL_CODE":3,"CNTR_CODE":"CH","NAME_LATN":"Vaud","NUTS_NAME":"Vaud","MOUNT_TYPE":3,"URBN_TYPE":2,"COAST_TYPE":3,"FID":"CH011"},"id":"CH011"},{"type":"Feature","geometry":{"type":"Point","coordinates":[7.6429,46.2136]},"properties":{"NUTS_ID":"CH012","LEVL_CODE":3,"CNTR_CODE":"CH","NAME_LATN":"Valais","NUTS_NAME":"Valais","MOUNT_TYPE":3,"URBN_TYPE":2,"COAST_TYPE":3,"FID":"CH012"},"id":"CH012"},{"type":"Feature","geometry":{"type":"Point","coordinates":[6.0889,46.2037]},"properties":{"NUTS_ID":"CH013","LEVL_CODE":3,"CNTR_CODE":"CH","NAME_LATN":"Genève","NUTS_NAME":"Genève","MOUNT_TYPE":1,"URBN_TYPE":1,"COAST_TYPE":3,"FID":"CH013"},"id":"CH013"},{"type":"Feature","geometry":{"type":"Point","coordinates":[7.6225,46.8218]},"properties":{"NUTS_ID":"CH021","LEVL_CODE":3,"CNTR_CODE":"CH","NAME_LATN":"Bern","NUTS_NAME":"Bern","MOUNT_TYPE":3,"URBN_TYPE":2,"COAST_TYPE":3,"FID":"CH021"},"id":"CH021"},{"type":"Feature","geometry":{"type":"Point","coordinates":[7.0955,46.6994]},"properties":{"NUTS_ID":"CH022","LEVL_CODE":3,"CNTR_CODE":"CH","NAME_LATN":"Freiburg","NUTS_NAME":"Freiburg","MOUNT_TYPE":3,"URBN_TYPE":2,"COAST_TYPE":3,"FID":"CH022"},"id":"CH022"},{"type":"Feature","geometry":{"type":"Point","coordinates":[7.6783,47.3306]},"properties":{"NUTS_ID":"CH023","LEVL_CODE":3,"CNTR_CODE":"CH","NAME_LATN":"Solothurn","NUTS_NAME":"Solothurn","MOUNT_TYPE":3,"URBN_TYPE":1,"COAST_TYPE":3,"FID":"CH023"},"id":"CH023"},{"type":"Feature","geometry":{"type":"Point","coordinates":[6.7941,46.9925]},"properties":{"NUTS_ID":"CH024","LEVL_CODE":3,"CNTR_CODE":"CH","NAME_LATN":"Neuchâtel","NUTS_NAME":"Neuchâtel","MOUNT_TYPE":3,"URBN_TYPE":2,"COAST_TYPE":3,"FID":"CH024"},"id":"CH024"},{"type":"Feature","geometry":{"type":"Point","coordinates":[7.1556,47.3557]},"properties":{"NUTS_ID":"CH025","LEVL_CODE":3,"CNTR_CODE":"CH","NAME_LATN":"Jura","NUTS_NAME":"Jura","MOUNT_TYPE":3,"URBN_TYPE":3,"COAST_TYPE":3,"FID":"CH025"},"id":"CH025"},